Code_and_Name,Station,Name,Latitude,Longitude,Altitude,RR_Available,RR_Start_Date,RR_End_Date,RR_Continuous,TN_Available,TN_Start_Date,TN_End_Date,TN_Continuous,HTN_Available,HTN_Start_Date,HTN_End_Date,HTN_Continuous,TX_Available,TX_Start_Date,TX_End_Date,TX_Continuous,HTX_Available,HTX_Start_Date,HTX_End_Date,HTX_Continuous,TM_Available,TM_Start_Date,TM_End_Date,TM_Continuous,TNTXM_Available,TNTXM_Start_Date,TNTXM_End_Date,TNTXM_Continuous,TAMPLI_Available,TAMPLI_Start_Date,TAMPLI_End_Date,TAMPLI_Continuous,TNSOL_Available,TNSOL_Start_Date,TNSOL_End_Date,TNSOL_Continuous,TN50_Available,TN50_Start_Date,TN50_End_Date,TN50_Continuous,DG_Available,DG_Start_Date,DG_End_Date,DG_Continuous,FFM_Available,FFM_Start_Date,FFM_End_Date,FFM_Continuous,FF2M_Available,FF2M_Start_Date,FF2M_End_Date,FF2M_Continuous,FXY_Available,FXY_Start_Date,FXY_End_Date,FXY_Continuous,DXY_Available,DXY_Start_Date,DXY_End_Date,DXY_Continuous,HXY_Available,HXY_Start_Date,HXY_End_Date,HXY_Continuous,FXI_Available,FXI_Start_Date,FXI_End_Date,FXI_Continuous,DXI_Available,DXI_Start_Date,DXI_End_Date,DXI_Continuous,HXI_Available,HXI_Start_Date,HXI_End_Date,HXI_Continuous,FXI2_Available,FXI2_Start_Date,FXI2_End_Date,FXI2_Continuous,DXI2_Available,DXI2_Start_Date,DXI2_End_Date,DXI2_Continuous,HXI2_Available,HXI2_Start_Date,HXI2_End_Date,HXI2_Continuous,FXI3S_Available,FXI3S_Start_Date,FXI3S_End_Date,FXI3S_Continuous,DXI3S_Available,DXI3S_Start_Date,DXI3S_End_Date,DXI3S_Continuous,HXI3S_Available,HXI3S_Start_Date,HXI3S_End_Date,HXI3S_Continuous,DRR_Available,DRR_Start_Date,DRR_End_Date,DRR_Continuous
67005001_ALTECKENDORF,67005001,ALTECKENDORF,48.789667,7.603333,174,True,1955-10-01,2010-12-31,False,False,,,,False,,,,False,,,,False,,,,False,,,,False,,,,False,,,,False,,,,False,,,,False,,,,False,,,,False,,,,False,,,,False,,,,False,,,,False,,,,False,,,,False,,,,False,,,,False,,,,False,,,,False,,,,False,,,,False,,,,False,,,
67021001_BARR,67021001,BARR,48.408333,7.460167,193,True,1950-01-01,2018-11-30,False,False,,,,False,,,,False,,,,False,,,,False,,,,False,,,,False,,,,False,,,,False,,,,False,,,,False,,,,False,,,,False,,,,False,,,,False,,,,False,,,,False,,,,False,,,,False,,,,False,,,,False,,,,False,,,,False,,,,False,,,,False,,,
67021002_BARR,67021002,BARR,48.4125,7.453167,210,True,1984-01-01,1991-02-28,True,True,1983-01-01,1991-02-28,True,False,,,,True,1983-01-01,1991-02-28,True,False,,,,False,,,,True,1983-01-01,1991-02-28,True,True,1983-01-01,1991-02-28,True,False,,,,False,,,,False,,,,False,,,,False,,,,False,,,,False,,,,False,,,,False,,,,False,,,,False,,,,False,,,,False,,,,False,,,,False,,,,False,,,,False,,,,False,,,
67027001_BELMONT,67027001,BELMONT,48.406333,7.267167,1065,True,2006-07-18,2022-12-31,False,True,2006-07-18,2022-12-31,False,True,2006-07-18,2022-12-31,False,True,2006-07-18,2022-12-31,False,True,2006-07-18,2022-12-31,False,True,2006-07-18,2022-12-31,False,True,2006-07-18,2022-12-31,False,True,2006-07-18,2022-12-31,False,False,,,,False,,,,True,2006-07-18,2022-12-31,False,True,2006-07-18,2022-12-31,False,False,,,,True,2006-07-18,2022-12-31,False,True,2006-07-18,2022-12-31,False,True,2006-07-18,2022-12-31,False,True,2006-07-18,2022-12-31,False,True,2006-07-18,2022-12-31,False,True,2006-07-18,2022-12-31,False,False,,,,False,,,,False,,,,True,2019-09-26,2022-12-31,False,False,,,,True,2019-09-26,2022-12-31,False,False,,,
67029001_BERG,67029001,BERG,48.884333,7.151667,350,True,2003-08-18,2022-12-31,True,True,2003-08-19,2022-12-31,True,True,2003-09-01,2022-12-31,False,True,2003-08-18,2022-12-31,True,True,2003-09-03,2022-12-31,False,True,2003-08-19,2022-12-31,False,True,2003-08-19,2022-12-31,True,True,2003-08-19,2022-12-31,True,True,2003-10-12,2022-12-31,False,False,,,,True,2004-10-17,2022-12-31,False,True,2003-08-19,2022-12-31,False,False,,,,True,2004-10-19,2022-12-31,False,True,2004-10-19,2022-12-31,False,True,2004-10-19,2022-12-31,False,True,2003-09-03,2022-12-31,False,True,2003-09-03,2022-12-31,False,True,2003-09-03,2022-12-31,False,False,,,,False,,,,False,,,,True,2019-09-26,2022-12-31,False,False,,,,True,2019-09-26,2022-12-31,False,False,,,
67067001_BRUMATH,67067001,BRUMATH,48.724667,7.709667,139,True,1950-01-01,2022-12-31,False,True,2018-05-01,2022-12-31,True,True,2018-05-01,2022-12-31,False,True,2018-05-01,2022-12-31,True,True,2018-05-01,2022-12-31,False,True,2018-05-01,2022-12-31,False,True,2018-05-01,2022-12-31,True,True,2018-05-01,2022-12-31,True,False,,,,False,,,,True,2018-05-01,2022-12-31,False,False,,,,False,,,,False,,,,False,,,,False,,,,False,,,,False,,,,False,,,,False,,,,False,,,,False,,,,False,,,,False,,,,False,,,,False,,,
67077002_COSSWILLER BISC,67077002,COSSWILLER BISC,48.61,7.345,444,True,1986-10-01,1996-12-31,False,True,1986-10-01,1996-12-31,False,True,1990-07-04,1996-11-13,False,True,1986-10-01,1996-12-31,False,True,1990-07-04,1996-11-13,False,True,1990-07-04,1996-12-31,False,True,1986-10-01,1996-12-31,False,True,1986-10-01,1996-12-31,False,False,,,,False,,,,False,,,,False,,,,False,,,,False,,,,False,,,,False,,,,False,,,,False,,,,False,,,,False,,,,False,,,,False,,,,False,,,,False,,,,False,,,,False,,,
67077003_COSSWILLER,67077003,COSSWILLER,48.610667,7.345167,445,True,1988-07-01,2014-02-28,False,False,,,,False,,,,False,,,,False,,,,False,,,,False,,,,False,,,,False,,,,False,,,,False,,,,False,,,,False,,,,False,,,,False,,,,False,,,,False,,,,False,,,,False,,,,False,,,,False,,,,False,,,,False,,,,False,,,,False,,,,False,,,
67083001_DAMBACH,67083001,DAMBACH,49.001667,7.63,250,True,1951-08-01,1961-12-31,False,False,,,,False,,,,False,,,,False,,,,False,,,,False,,,,False,,,,False,,,,False,,,,False,,,,False,,,,False,,,,False,,,,False,,,,False,,,,False,,,,False,,,,False,,,,False,,,,False,,,,False,,,,False,,,,False,,,,False,,,,False,,,
67083002_DAMBACH_SAPC,67083002,DAMBACH_SAPC,48.999333,7.661667,234,True,2017-11-23,2022-12-31,True,True,2017-11-24,2022-12-31,True,True,2017-11-24,2022-12-31,False,True,2017-11-23,2022-12-31,True,True,2017-11-23,2022-12-31,False,True,2017-11-24,2022-12-31,False,True,2017-11-24,2022-12-31,True,True,2017-11-24,2022-12-31,True,False,,,,False,,,,True,2017-11-24,2022-12-31,False,False,,,,False,,,,False,,,,False,,,,False,,,,False,,,,False,,,,False,,,,False,,,,False,,,,False,,,,False,,,,False,,,,False,,,,False,,,
67090001_DIEBOLSHEIM,67090001,DIEBOLSHEIM,48.2865,7.666167,162,True,1986-04-01,2014-04-30,True,True,1986-05-01,2014-04-30,True,False,,,,True,1986-05-01,2014-04-30,True,False,,,,False,,,,True,1986-05-01,2014-04-30,True,True,1986-05-01,2014-04-30,True,False,,,,False,,,,False,,,,False,,,,False,,,,False,,,,False,,,,False,,,,False,,,,False,,,,False,,,,False,,,,False,,,,False,,,,False,,,,False,,,,False,,,,False,,,
67095001_DIEMERINGEN,67095001,DIEMERINGEN,48.933333,7.183333,220,True,1950-01-01,1992-12-31,False,False,,,,False,,,,False,,,,False,,,,False,,,,False,,,,False,,,,False,,,,False,,,,False,,,,False,,,,False,,,,False,,,,False,,,,False,,,,False,,,,False,,,,False,,,,False,,,,False,,,,False,,,,False,,,,False,,,,False,,,,False,,,
67115001_EBERSHEIM,67115001,EBERSHEIM,48.3085,7.4945,164,True,1950-01-01,2022-12-31,False,True,2020-10-01,2022-12-31,True,True,2020-10-01,2022-12-31,True,True,2020-09-30,2022-12-31,True,True,2020-09-30,2022-12-31,True,True,2020-10-01,2022-12-31,True,True,2020-10-01,2022-12-31,True,True,2020-10-01,2022-12-31,True,False,,,,False,,,,True,2020-10-01,2022-12-31,False,False,,,,False,,,,False,,,,False,,,,False,,,,False,,,,False,,,,False,,,,False,,,,False,,,,False,,,,False,,,,False,,,,False,,,,False,,,
67122001_WANGENBOURG_SAPC,67122001,WANGENBOURG_SAPC,48.6425,7.307,460,True,1990-05-01,2022-12-31,True,True,1990-05-02,2022-12-31,True,True,1990-05-02,2022-12-31,False,True,1990-05-01,2022-12-31,True,True,1990-05-01,2022-12-31,False,True,1990-05-01,2022-12-31,False,True,1990-05-02,2022-12-31,True,True,1990-05-02,2022-12-31,True,False,,,,False,,,,True,2004-10-17,2022-12-31,False,True,1990-05-01,2014-11-03,False,False,,,,True,1993-01-06,2008-01-01,False,True,1993-01-06,2008-01-01,False,True,1993-01-06,2008-01-01,False,True,1990-05-01,2014-12-26,False,True,1990-05-01,2014-11-03,False,True,1990-05-01,2014-11-03,False,False,,,,False,,,,False,,,,False,,,,False,,,,False,,,,False,,,
67124001_STRASBOURG-ENTZHEIM,67124001,STRASBOURG-ENTZHEIM,48.5495,7.640333,150,True,1950-01-01,2022-12-31,True,True,1950-01-01,2022-12-31,True,True,1984-01-01,2022-12-31,False,True,1950-01-01,2022-12-31,True,True,1984-01-01,2022-12-31,False,True,1950-01-01,2022-12-31,False,True,1950-01-01,2022-12-31,True,True,1950-01-01,2022-12-31,True,True,1984-01-01,2022-12-31,False,True,1990-01-01,2022-12-31,False,True,1990-01-01,2022-12-31,False,True,1950-01-01,2022-12-31,False,False,,,,True,1973-01-01,2022-12-31,False,True,1973-01-01,2022-12-31,False,True,1984-01-01,2022-12-31,False,True,1950-01-01,2022-12-31,False,True,1962-01-01,2022-12-31,False,True,1984-01-01,2022-12-31,False,False,,,,False,,,,False,,,,True,2009-04-15,2022-12-31,False,False,,,,True,2009-04-15,2022-12-31,False,True,2004-09-01,2022-12-31,False
67125001_EPFIG,67125001,EPFIG,48.36,7.463333,220,True,1950-01-01,1967-01-31,False,True,1950-01-01,1962-09-30,False,False,,,,True,1950-01-01,1962-09-30,False,False,,,,False,,,,True,1950-01-01,1962-09-30,False,True,1950-01-01,1962-09-30,False,False,,,,False,,,,False,,,,False,,,,False,,,,False,,,,False,,,,False,,,,False,,,,False,,,,False,,,,False,,,,False,,,,False,,,,False,,,,False,,,,False,,,,False,,,
67126002_ERCKARTSWILLER_SAPC,67126002,ERCKARTSWILLER_SAPC,48.873,7.364167,245,True,2015-10-22,2022-12-31,True,True,2015-10-22,2022-12-31,True,True,2015-10-23,2022-12-31,False,True,2015-10-22,2022-12-31,True,True,2015-10-22,2022-12-31,False,True,2015-10-23,2022-12-31,False,True,2015-10-22,2022-12-31,True,True,2015-10-22,2022-12-31,True,False,,,,False,,,,True,2015-10-22,2022-12-31,False,False,,,,False,,,,False,,,,False,,,,False,,,,False,,,,False,,,,False,,,,False,,,,False,,,,False,,,,False,,,,False,,,,False,,,,False,,,
67127001_ERGERSHEIM,67127001,ERGERSHEIM,48.57,7.526667,165,True,1950-01-01,1966-10-31,False,False,,,,False,,,,False,,,,False,,,,False,,,,False,,,,False,,,,False,,,,False,,,,False,,,,False,,,,False,,,,False,,,,False,,,,False,,,,False,,,,False,,,,False,,,,False,,,,False,,,,False,,,,False,,,,False,,,,False,,,,False,,,
67130001_ERSTEIN,67130001,ERSTEIN,48.42,7.663333,155,True,1950-01-01,1993-10-31,False,True,1988-05-01,1992-01-31,False,False,,,,True,1988-05-01,1992-01-31,False,False,,,,False,,,,True,1988-05-01,1992-01-31,False,True,1988-05-01,1992-01-31,False,False,,,,False,,,,False,,,,False,,,,False,,,,False,,,,False,,,,False,,,,False,,,,False,,,,False,,,,False,,,,False,,,,False,,,,False,,,,False,,,,False,,,,False,,,
67130003_ERSTEIN SA,67130003,ERSTEIN SA,48.418333,7.648333,155,True,1990-03-16,2001-08-31,False,True,1990-03-01,2001-08-31,False,True,1990-03-16,2001-08-31,False,True,1990-03-01,2001-08-31,True,True,1990-03-16,2001-08-31,False,True,1990-03-16,2001-08-31,False,True,1990-03-01,2001-08-31,False,True,1990-03-01,2001-08-31,False,False,,,,False,,,,False,,,,False,,,,False,,,,False,,,,False,,,,False,,,,False,,,,False,,,,False,,,,False,,,,False,,,,False,,,,False,,,,False,,,,False,,,,False,,,
67131001_ESCHAU-BOURG,67131001,ESCHAU-BOURG,48.486667,7.715,145,True,1957-08-01,1961-06-30,False,False,,,,False,,,,False,,,,False,,,,False,,,,False,,,,False,,,,False,,,,False,,,,False,,,,False,,,,False,,,,False,,,,False,,,,False,,,,False,,,,False,,,,False,,,,False,,,,False,,,,False,,,,False,,,,False,,,,False,,,,False,,,
67151001_GAMBSHEIM,67151001,GAMBSHEIM,48.7,7.883333,129,True,1983-01-01,2001-03-31,True,True,1983-01-01,2001-03-31,True,False,,,,True,1983-01-01,2001-03-31,True,False,,,,False,,,,True,1983-01-01,2001-03-31,True,True,1983-01-01,2001-03-31,True,False,,,,False,,,,False,,,,False,,,,False,,,,False,,,,False,,,,False,,,,False,,,,False,,,,False,,,,False,,,,False,,,,False,,,,False,,,,False,,,,False,,,,False,,,
67165001_COL DU DONON,67165001,COL DU DONON,48.525,7.113333,730,True,1950-01-01,1980-02-29,False,True,1976-01-01,1980-07-31,True,False,,,,True,1976-01-01,1980-07-31,True,False,,,,False,,,,True,1976-01-01,1980-07-31,True,True,1976-01-01,1980-07-31,True,False,,,,False,,,,False,,,,False,,,,False,,,,False,,,,False,,,,False,,,,False,,,,False,,,,False,,,,False,,,,False,,,,False,,,,False,,,,False,,,,False,,,,False,,,
67165003_GRANDFONTAINE - MF,67165003,GRANDFONTAINE - MF,48.516667,7.116667,515,True,1980-08-01,2005-01-31,True,True,1980-08-01,2005-01-31,True,False,,,,True,1980-08-01,2005-01-31,False,False,,,,False,,,,True,1980-08-01,2005-01-31,False,True,1980-08-01,2005-01-31,False,False,,,,False,,,,False,,,,False,,,,False,,,,False,,,,False,,,,False,,,,False,,,,False,,,,False,,,,False,,,,False,,,,False,,,,False,,,,False,,,,False,,,,False,,,
67165004_GRANDFONTAINE - HAUT DONON,67165004,GRANDFONTAINE - HAUT DONON,48.508333,7.15,745,True,1992-04-01,1994-04-30,False,False,,,,False,,,,False,,,,False,,,,False,,,,False,,,,False,,,,False,,,,False,,,,False,,,,False,,,,False,,,,False,,,,False,,,,False,,,,False,,,,False,,,,False,,,,False,,,,False,,,,False,,,,False,,,,False,,,,False,,,,False,,,
67165006_GRANDFONTAINE_SAPC,67165006,GRANDFONTAINE_SAPC,48.507667,7.148,736,True,2016-08-11,2022-12-31,True,True,2016-08-11,2022-12-31,True,True,2016-08-11,2022-12-31,False,True,2016-08-11,2022-12-31,True,True,2016-08-11,2022-12-31,True,True,2016-08-11,2022-12-31,False,True,2016-08-11,2022-12-31,True,True,2016-08-11,2022-12-31,True,False,,,,False,,,,True,2016-08-11,2022-12-31,False,False,,,,False,,,,False,,,,False,,,,False,,,,False,,,,False,,,,False,,,,False,,,,False,,,,False,,,,False,,,,False,,,,False,,,,False,,,
67180001_HAGUENAU,67180001,HAGUENAU,48.836333,7.801167,153,True,1950-01-01,2022-12-31,False,True,2020-10-14,2022-12-31,True,True,2020-10-15,2022-12-31,True,True,2020-10-14,2022-12-31,True,True,2020-10-14,2022-12-31,True,True,2020-10-15,2022-12-31,True,True,2020-10-14,2022-12-31,True,True,2020-10-14,2022-12-31,True,False,,,,False,,,,True,2020-10-14,2022-12-31,False,False,,,,False,,,,False,,,,False,,,,False,,,,False,,,,False,,,,False,,,,False,,,,False,,,,False,,,,False,,,,False,,,,False,,,,False,,,
67180004_HAGUENAU - MF STIEFELHARDT,67180004,HAGUENAU - MF STIEFELHARDT,48.816667,7.833333,140,True,1954-06-01,1990-08-31,False,True,1980-01-01,1990-08-31,True,False,,,,True,1980-01-01,1990-08-31,True,False,,,,False,,,,True,1980-01-01,1990-08-31,True,True,1980-01-01,1990-08-31,True,False,,,,False,,,,False,,,,False,,,,False,,,,False,,,,False,,,,False,,,,False,,,,False,,,,False,,,,False,,,,False,,,,False,,,,False,,,,False,,,,False,,,,False,,,
67180008_HAGUENAU - VILLE,67180008,HAGUENAU - VILLE,48.816667,7.783333,148,True,2001-11-01,2003-01-31,True,True,2000-01-01,2003-01-31,False,False,,,,True,2000-01-01,2003-01-31,False,False,,,,False,,,,True,2000-01-01,2003-01-31,False,True,2000-01-01,2003-01-31,False,False,,,,False,,,,False,,,,False,,,,False,,,,False,,,,False,,,,False,,,,False,,,,False,,,,False,,,,False,,,,False,,,,False,,,,False,,,,False,,,,False,,,,False,,,
67182001_HANGENBIETEN,67182001,HANGENBIETEN,48.559167,7.613833,147,True,1950-01-01,1950-06-30,False,False,,,,False,,,,False,,,,False,,,,False,,,,False,,,,False,,,,False,,,,False,,,,False,,,,False,,,,False,,,,False,,,,False,,,,False,,,,False,,,,False,,,,False,,,,False,,,,False,,,,False,,,,False,,,,False,,,,False,,,,False,,,
67186001_HEGENEY SA,67186001,HEGENEY SA,48.888667,7.735833,185,True,1992-04-04,2015-03-02,False,True,1992-07-15,2015-03-02,False,True,1992-07-15,2015-03-01,False,True,1992-07-25,2015-03-02,False,True,1992-07-25,2015-03-02,False,True,1992-07-15,2015-03-01,False,True,1992-07-26,2015-03-02,False,True,1992-07-26,2015-03-02,False,False,,,,False,,,,True,2004-10-17,2015-03-02,False,True,1992-04-04,2015-03-01,False,False,,,,True,1993-01-02,2008-01-01,False,True,1993-01-02,2008-01-01,False,True,1993-01-02,2008-01-01,False,True,1992-04-04,2015-03-01,False,True,1992-04-04,2015-03-01,False,True,1992-04-04,2015-03-01,False,False,,,,False,,,,False,,,,False,,,,False,,,,False,,,,False,,,
67186002_HEGENEY,67186002,HEGENEY,48.8915,7.7395,179,True,2015-09-01,2021-11-30,True,False,,,,False,,,,False,,,,False,,,,False,,,,False,,,,False,,,,False,,,,False,,,,False,,,,False,,,,False,,,,False,,,,False,,,,False,,,,False,,,,False,,,,False,,,,False,,,,False,,,,False,,,,False,,,,False,,,,False,,,,False,,,
67189001_HEILIGENSTEIN - TRUTTENHAUSEN,67189001,HEILIGENSTEIN - TRUTTENHAUSEN,48.4275,7.432333,365,True,1950-01-01,1962-03-31,False,False,,,,False,,,,False,,,,False,,,,False,,,,False,,,,False,,,,False,,,,False,,,,False,,,,False,,,,False,,,,False,,,,False,,,,False,,,,False,,,,False,,,,False,,,,False,,,,False,,,,False,,,,False,,,,False,,,,False,,,,False,,,
67210001_LE HOHWALD,67210001,LE HOHWALD,48.414667,7.349667,785,True,1950-01-01,2013-10-31,False,True,1987-01-01,2013-10-31,False,False,,,,True,1987-01-01,2013-10-31,False,False,,,,False,,,,True,1987-01-01,2013-10-31,False,True,1987-01-01,2013-10-31,False,False,,,,False,,,,False,,,,False,,,,False,,,,False,,,,False,,,,False,,,,False,,,,False,,,,False,,,,False,,,,False,,,,False,,,,False,,,,False,,,,False,,,,False,,,
67210002_LE HOHWALD_SAPC,67210002,LE HOHWALD_SAPC,48.4015,7.33,591,True,1990-05-09,2022-12-31,False,True,1990-05-10,2022-12-31,False,True,1990-05-10,2022-12-31,False,True,1990-05-10,2022-12-31,False,True,1990-05-10,2022-12-31,False,True,1990-05-10,2022-12-31,False,True,1990-05-10,2022-12-31,False,True,1990-05-10,2022-12-31,False,False,,,,False,,,,True,2004-10-17,2022-12-31,False,True,1990-05-10,2015-10-06,False,False,,,,True,1993-01-01,2008-01-01,False,True,1993-01-01,2008-01-01,False,True,1993-01-01,2008-01-01,False,True,1990-05-10,2015-10-06,False,True,1990-05-10,2015-10-06,False,True,1990-05-10,2015-10-06,False,False,,,,False,,,,False,,,,False,,,,False,,,,False,,,,False,,,
67210006_LE HOHWALD,67210006,LE HOHWALD,48.406667,7.3265,595,True,2013-12-01,2017-03-31,False,False,,,,False,,,,False,,,,False,,,,False,,,,False,,,,False,,,,False,,,,False,,,,False,,,,False,,,,False,,,,False,,,,False,,,,False,,,,False,,,,False,,,,False,,,,False,,,,False,,,,False,,,,False,,,,False,,,,False,,,,False,,,
67261001_LAUTERBOURG,67261001,LAUTERBOURG,48.968333,8.163333,110,True,1955-01-01,1988-03-31,False,False,,,,False,,,,False,,,,False,,,,False,,,,False,,,,False,,,,False,,,,False,,,,False,,,,False,,,,False,,,,False,,,,False,,,,False,,,,False,,,,False,,,,False,,,,False,,,,False,,,,False,,,,False,,,,False,,,,False,,,,False,,,
67261003_LAUTERBOURG SA,67261003,LAUTERBOURG SA,48.97,8.166667,110,True,1992-03-10,2006-10-15,True,True,1992-03-10,2006-10-15,False,True,1992-03-10,2006-10-15,False,True,1992-03-10,2006-10-15,False,True,1992-03-10,2006-10-15,False,True,1992-03-10,2006-10-15,False,True,1992-03-10,2006-10-15,False,True,1992-03-10,2006-10-15,False,False,,,,False,,,,True,2004-10-17,2006-10-15,False,True,1992-03-10,2006-10-15,False,False,,,,True,1993-01-01,2006-10-15,False,True,1993-01-01,2006-10-15,False,True,1993-01-01,2006-10-15,False,True,1992-07-25,2006-10-15,False,True,1992-07-25,2006-10-15,False,True,1992-07-25,2006-10-15,False,False,,,,False,,,,False,,,,False,,,,False,,,,False,,,,False,,,
67263001_LEMBACH,67263001,LEMBACH,48.9935,7.7435,325,True,2014-02-26,2022-01-31,False,False,,,,False,,,,False,,,,False,,,,False,,,,False,,,,False,,,,False,,,,False,,,,False,,,,False,,,,False,,,,False,,,,False,,,,False,,,,False,,,,False,,,,False,,,,False,,,,False,,,,False,,,,False,,,,False,,,,False,,,,False,,,
67268001_LIPSHEIM,67268001,LIPSHEIM,48.49,7.666667,146,True,1950-01-01,1953-02-28,True,False,,,,False,,,,False,,,,False,,,,False,,,,False,,,,False,,,,False,,,,False,,,,False,,,,False,,,,False,,,,False,,,,False,,,,False,,,,False,,,,False,,,,False,,,,False,,,,False,,,,False,,,,False,,,,False,,,,False,,,,False,,,
67271001_LOBSANN,67271001,LOBSANN,48.963333,7.846167,233,True,1952-01-01,1953-12-31,True,False,,,,False,,,,False,,,,False,,,,False,,,,False,,,,False,,,,False,,,,False,,,,False,,,,False,,,,False,,,,False,,,,False,,,,False,,,,False,,,,False,,,,False,,,,False,,,,False,,,,False,,,,False,,,,False,,,,False,,,,False,,,
67273001_LOHR,67273001,LOHR,48.858833,7.2445,322,True,2015-10-01,2021-12-31,True,False,,,,False,,,,False,,,,False,,,,False,,,,False,,,,False,,,,False,,,,False,,,,False,,,,False,,,,False,,,,False,,,,False,,,,False,,,,False,,,,False,,,,False,,,,False,,,,False,,,,False,,,,False,,,,False,,,,False,,,,False,,,
67281001_MARCKOLSHEIM,67281001,MARCKOLSHEIM,48.161667,7.545,178,True,1958-01-01,1973-12-31,False,False,,,,False,,,,False,,,,False,,,,False,,,,False,,,,False,,,,False,,,,False,,,,False,,,,False,,,,False,,,,False,,,,False,,,,False,,,,False,,,,False,,,,False,,,,False,,,,False,,,,False,,,,False,,,,False,,,,False,,,,False,,,
67296001_MITTELHAUSBERGEN,67296001,MITTELHAUSBERGEN,48.612,7.692333,153,True,2014-01-01,2021-11-30,True,False,,,,False,,,,False,,,,False,,,,False,,,,False,,,,False,,,,False,,,,False,,,,False,,,,False,,,,False,,,,False,,,,False,,,,False,,,,False,,,,False,,,,False,,,,False,,,,False,,,,False,,,,False,,,,False,,,,False,,,,False,,,
67297001_MITTELHAUSEN,67297001,MITTELHAUSEN,48.706667,7.63,185,True,1958-01-01,1973-12-31,False,False,,,,False,,,,False,,,,False,,,,False,,,,False,,,,False,,,,False,,,,False,,,,False,,,,False,,,,False,,,,False,,,,False,,,,False,,,,False,,,,False,,,,False,,,,False,,,,False,,,,False,,,,False,,,,False,,,,False,,,,False,,,
67309001_MUNDOLSHEIM,67309001,MUNDOLSHEIM,48.639667,7.706167,143,True,1985-09-01,2009-06-30,True,False,,,,False,,,,False,,,,False,,,,False,,,,False,,,,False,,,,False,,,,False,,,,False,,,,False,,,,False,,,,False,,,,False,,,,False,,,,False,,,,False,,,,False,,,,False,,,,False,,,,False,,,,False,,,,False,,,,False,,,,False,,,
67320001_NEUVE EGLISE,67320001,NEUVE EGLISE,48.328333,7.313333,268,True,1985-07-01,1989-08-31,True,True,1986-04-01,1989-08-31,True,False,,,,True,1986-04-01,1989-08-31,True,False,,,,False,,,,True,1986-04-01,1989-08-31,True,True,1986-04-01,1989-08-31,True,False,,,,False,,,,False,,,,False,,,,False,,,,False,,,,False,,,,False,,,,False,,,,False,,,,False,,,,False,,,,False,,,,False,,,,False,,,,False,,,,False,,,,False,,,
67340001_ZINSWILLER,67340001,ZINSWILLER,48.923333,7.593333,201,True,1950-01-01,1994-11-30,True,True,1950-01-01,1994-12-31,True,False,,,,True,1950-01-01,1994-12-31,True,False,,,,False,,,,True,1950-01-01,1994-12-31,True,True,1950-01-01,1994-12-31,True,False,,,,False,,,,False,,,,False,,,,False,,,,False,,,,False,,,,False,,,,False,,,,False,,,,False,,,,False,,,,False,,,,False,,,,False,,,,False,,,,False,,,,False,,,
67362001_HT-KOENIGSBOURG,67362001,HT-KOENIGSBOURG,48.238333,7.338333,760,True,2002-09-01,2003-08-31,True,False,,,,False,,,,False,,,,False,,,,False,,,,False,,,,False,,,,False,,,,False,,,,False,,,,False,,,,False,,,,False,,,,False,,,,False,,,,False,,,,False,,,,False,,,,False,,,,False,,,,False,,,,False,,,,False,,,,False,,,,False,,,
67363001_OSTHOFFEN,67363001,OSTHOFFEN,48.585,7.556667,180,True,1968-04-01,1972-02-29,False,False,,,,False,,,,False,,,,False,,,,False,,,,False,,,,False,,,,False,,,,False,,,,False,,,,False,,,,False,,,,False,,,,False,,,,False,,,,False,,,,False,,,,False,,,,False,,,,False,,,,False,,,,False,,,,False,,,,False,,,,False,,,
67368001_MONT SAINTE-ODILE,67368001,MONT SAINTE-ODILE,48.4375,7.404667,763,True,1960-10-11,1968-08-31,False,False,,,,False,,,,False,,,,False,,,,False,,,,False,,,,False,,,,False,,,,False,,,,False,,,,False,,,,False,,,,False,,,,False,,,,False,,,,False,,,,False,,,,False,,,,False,,,,False,,,,False,,,,False,,,,False,,,,False,,,,False,,,
67368002_OTTROTT,67368002,OTTROTT,48.462833,7.415833,332,True,1988-04-01,2022-01-31,True,False,,,,False,,,,False,,,,False,,,,False,,,,False,,,,False,,,,False,,,,False,,,,False,,,,False,,,,False,,,,False,,,,False,,,,False,,,,False,,,,False,,,,False,,,,False,,,,False,,,,False,,,,False,,,,False,,,,False,,,,False,,,
67371002_PETITE PIERRE,67371002,PETITE PIERRE,48.865,7.301667,366,True,1992-05-06,1998-12-31,False,True,1992-05-06,1998-12-31,False,True,1992-05-06,1998-12-31,False,True,1992-05-06,1998-12-31,False,True,1992-05-06,1998-12-31,False,True,1992-05-06,1998-12-31,False,True,1992-05-06,1998-12-31,False,True,1992-05-06,1998-12-31,False,False,,,,False,,,,False,,,,True,1992-05-06,1998-12-31,False,False,,,,True,1993-01-06,1993-04-13,False,True,1993-01-06,1993-04-13,False,True,1993-01-06,1993-04-13,False,True,1992-05-06,1998-12-31,False,True,1992-05-06,1998-12-31,False,True,1992-05-06,1998-12-31,False,False,,,,False,,,,False,,,,False,,,,False,,,,False,,,,False,,,
67374001_PFETTISHEIM REK,67374001,PFETTISHEIM REK,48.658333,7.646667,155,True,1993-01-01,1996-08-31,True,True,1993-01-01,1996-08-31,False,True,1993-01-07,1996-08-31,False,True,1993-01-01,1996-08-31,False,True,1993-01-07,1996-08-31,False,True,1993-01-07,1996-08-31,False,True,1993-01-01,1996-08-31,False,True,1993-01-01,1996-08-31,False,False,,,,False,,,,False,,,,True,1993-01-01,1996-08-31,False,False,,,,True,1993-01-02,1993-04-12,False,True,1993-01-02,1993-04-12,False,True,1993-01-02,1993-04-12,False,True,1993-01-10,1996-08-31,False,True,1993-01-10,1996-08-31,False,True,1994-01-01,1996-08-31,False,False,,,,False,,,,False,,,,False,,,,False,,,,False,,,,False,,,
67378001_PLOBSHEIM,67378001,PLOBSHEIM,48.47,7.725,150,True,1953-06-01,1957-07-31,False,False,,,,False,,,,False,,,,False,,,,False,,,,False,,,,False,,,,False,,,,False,,,,False,,,,False,,,,False,,,,False,,,,False,,,,False,,,,False,,,,False,,,,False,,,,False,,,,False,,,,False,,,,False,,,,False,,,,False,,,,False,,,
67379001_PREUSCHDORF,67379001,PREUSCHDORF,48.943167,7.803833,167,True,1961-01-01,2022-12-31,False,True,1979-01-01,2022-07-31,False,False,,,,True,1979-01-01,2022-07-31,False,False,,,,False,,,,True,1979-01-01,2022-07-31,False,True,1979-01-01,2022-07-31,False,False,,,,False,,,,False,,,,False,,,,False,,,,False,,,,False,,,,False,,,,False,,,,False,,,,False,,,,False,,,,False,,,,False,,,,False,,,,False,,,,False,,,,False,,,
67379002_PREUSCHDORF - MAIRIE,67379002,PREUSCHDORF - MAIRIE,48.943333,7.798333,180,True,1969-12-01,1973-03-31,False,False,,,,False,,,,False,,,,False,,,,False,,,,False,,,,False,,,,False,,,,False,,,,False,,,,False,,,,False,,,,False,,,,False,,,,False,,,,False,,,,False,,,,False,,,,False,,,,False,,,,False,,,,False,,,,False,,,,False,,,,False,,,
67388001_REICHSHOFFEN,67388001,REICHSHOFFEN,48.95,7.673333,190,True,1964-01-01,1997-11-30,False,False,,,,False,,,,False,,,,False,,,,False,,,,False,,,,False,,,,False,,,,False,,,,False,,,,False,,,,False,,,,False,,,,False,,,,False,,,,False,,,,False,,,,False,,,,False,,,,False,,,,False,,,,False,,,,False,,,,False,,,,False,,,
67403001_RINGENDORF,67403001,RINGENDORF,48.806,7.553667,226,True,2015-08-01,2021-11-30,True,False,,,,False,,,,False,,,,False,,,,False,,,,False,,,,False,,,,False,,,,False,,,,False,,,,False,,,,False,,,,False,,,,False,,,,False,,,,False,,,,False,,,,False,,,,False,,,,False,,,,False,,,,False,,,,False,,,,False,,,,False,,,
67414001_ROTHAU SA,67414001,ROTHAU SA,48.446667,7.2,380,True,1962-06-01,2000-04-30,False,True,1962-07-01,2000-04-30,False,True,1998-01-01,2000-04-30,False,True,1962-07-01,2000-04-30,False,True,1998-01-01,2000-04-30,False,True,1998-01-01,2000-04-30,False,True,1962-07-01,2000-04-30,False,True,1962-07-01,2000-04-30,False,False,,,,False,,,,False,,,,False,,,,False,,,,False,,,,False,,,,False,,,,False,,,,False,,,,False,,,,False,,,,False,,,,False,,,,False,,,,False,,,,False,,,,False,,,
67414002_ROTHAU - LA CLAQUETTE,67414002,ROTHAU - LA CLAQUETTE,48.453333,7.208333,330,True,1950-01-01,1962-02-28,True,True,1951-01-01,1962-02-28,True,False,,,,True,1951-01-01,1962-02-28,True,False,,,,False,,,,True,1951-01-01,1962-02-28,True,True,1951-01-01,1962-02-28,True,False,,,,False,,,,False,,,,False,,,,False,,,,False,,,,False,,,,False,,,,False,,,,False,,,,False,,,,False,,,,False,,,,False,,,,False,,,,False,,,,False,,,,False,,,
67420001_RUSS,67420001,RUSS,48.497167,7.2555,284,True,2003-08-01,2021-12-31,True,False,,,,False,,,,False,,,,False,,,,False,,,,False,,,,False,,,,False,,,,False,,,,False,,,,False,,,,False,,,,False,,,,False,,,,False,,,,False,,,,False,,,,False,,,,False,,,,False,,,,False,,,,False,,,,False,,,,False,,,,False,,,
67420002_RUSS-SPC,67420002,RUSS-SPC,48.496333,7.255833,284,True,2019-07-10,2022-12-31,False,False,,,,False,,,,False,,,,False,,,,False,,,,False,,,,False,,,,False,,,,False,,,,False,,,,False,,,,False,,,,False,,,,False,,,,False,,,,False,,,,False,,,,False,,,,False,,,,False,,,,False,,,,False,,,,False,,,,False,,,,False,,,
67421001_SAALES,67421001,SAALES,48.361667,7.103333,630,True,1970-11-01,2003-07-31,False,True,1986-12-01,1994-05-31,True,False,,,,True,1986-12-01,1994-07-31,False,False,,,,False,,,,True,1986-12-01,1994-05-31,False,True,1986-12-01,1994-05-31,False,False,,,,False,,,,False,,,,False,,,,False,,,,False,,,,False,,,,False,,,,False,,,,False,,,,False,,,,False,,,,False,,,,False,,,,False,,,,False,,,,False,,,,False,,,
67421004_SAALES,67421004,SAALES,48.349333,7.106167,558,True,2003-09-01,2021-12-31,True,False,,,,False,,,,False,,,,False,,,,False,,,,False,,,,False,,,,False,,,,False,,,,False,,,,False,,,,False,,,,False,,,,False,,,,False,,,,False,,,,False,,,,False,,,,False,,,,False,,,,False,,,,False,,,,False,,,,False,,,,False,,,
67435001_SARREWERDEN,67435001,SARREWERDEN,48.904333,7.064167,235,True,1970-08-01,2010-12-31,False,False,,,,False,,,,False,,,,False,,,,False,,,,False,,,,False,,,,False,,,,False,,,,False,,,,False,,,,False,,,,False,,,,False,,,,False,,,,False,,,,False,,,,False,,,,False,,,,False,,,,False,,,,False,,,,False,,,,False,,,,False,,,
67437001_SAVERNE,67437001,SAVERNE,48.733333,7.35,210,True,1953-01-01,1993-04-30,False,True,1977-01-01,1993-04-17,False,False,,,,True,1977-01-01,1993-04-16,True,False,,,,False,,,,True,1977-01-01,1993-04-16,False,True,1977-01-01,1993-04-16,False,False,,,,False,,,,False,,,,False,,,,False,,,,False,,,,False,,,,False,,,,False,,,,False,,,,False,,,,False,,,,False,,,,False,,,,False,,,,False,,,,False,,,,False,,,
67437003_SAVERNE,67437003,SAVERNE,48.746167,7.356667,206,True,2000-03-01,2021-11-30,True,False,,,,False,,,,False,,,,False,,,,False,,,,False,,,,False,,,,False,,,,False,,,,False,,,,False,,,,False,,,,False,,,,False,,,,False,,,,False,,,,False,,,,False,,,,False,,,,False,,,,False,,,,False,,,,False,,,,False,,,,False,,,
67443001_SCHEIBENHARD,67443001,SCHEIBENHARD,48.964167,8.1455,144,True,2006-10-27,2022-12-31,True,True,2006-10-27,2022-12-31,False,True,2006-10-27,2022-12-31,False,True,2006-10-27,2022-12-31,True,True,2006-10-27,2022-12-31,False,True,2006-10-27,2022-12-31,False,True,2006-10-27,2022-12-31,False,True,2006-10-27,2022-12-31,False,False,,,,False,,,,True,2006-10-27,2022-12-31,False,True,2006-10-27,2022-12-31,False,False,,,,True,2006-10-27,2022-12-31,False,True,2006-10-27,2022-12-31,False,True,2006-10-27,2022-12-31,False,True,2006-10-27,2022-12-31,False,True,2006-10-27,2022-12-31,False,True,2006-10-27,2022-12-31,False,False,,,,False,,,,False,,,,True,2019-09-26,2022-12-31,False,False,,,,True,2019-09-26,2022-12-31,False,False,,,
67460001_SCHWINDRATZHEIM,67460001,SCHWINDRATZHEIM,48.768333,7.598333,206,True,1986-10-01,1998-08-31,False,True,1986-10-01,1998-08-31,False,True,1987-12-31,1998-08-31,False,True,1986-10-01,1998-08-31,False,True,1987-12-31,1998-08-31,False,True,1987-12-31,1998-08-31,False,True,1986-10-01,1998-08-31,False,True,1986-10-01,1998-08-31,False,False,,,,False,,,,False,,,,True,1987-12-31,1998-08-31,False,False,,,,True,1993-01-01,1993-04-18,False,True,1993-01-01,1993-04-18,False,True,1993-01-01,1993-04-18,False,True,1987-12-31,1998-08-31,False,True,1987-12-31,1998-08-30,False,True,1987-12-31,1998-08-31,False,False,,,,False,,,,False,,,,False,,,,False,,,,False,,,,False,,,
67462001_SELESTAT,67462001,SELESTAT,48.266667,7.45,182,True,1963-01-01,1987-09-30,False,True,1964-01-01,1987-09-30,True,False,,,,True,1964-01-01,1987-09-30,True,False,,,,False,,,,True,1964-01-01,1987-09-30,True,True,1964-01-01,1987-09-30,True,False,,,,False,,,,False,,,,False,,,,False,,,,False,,,,False,,,,False,,,,False,,,,False,,,,False,,,,False,,,,False,,,,False,,,,False,,,,False,,,,False,,,,False,,,
67462003_SELESTAT SAD,67462003,SELESTAT SAD,48.271667,7.48,172,True,1986-10-01,1997-11-30,False,True,1986-10-01,1997-11-30,True,True,1987-01-02,1997-11-30,False,True,1986-10-01,1997-11-30,False,True,1987-01-01,1997-11-30,False,True,1987-01-01,1997-11-30,False,True,1986-10-01,1997-11-30,False,True,1986-10-01,1997-11-30,False,True,1988-12-31,1997-11-30,False,False,,,,False,,,,True,1987-01-01,1997-11-30,False,False,,,,True,1993-01-01,1993-04-18,False,True,1993-01-01,1993-04-18,False,True,1993-01-01,1993-04-18,False,True,1987-01-01,1997-11-30,False,True,1987-01-01,1997-11-30,False,True,1987-01-01,1997-11-30,False,False,,,,False,,,,False,,,,False,,,,False,,,,False,,,,False,,,
67462004_SELESTAT SA,67462004,SELESTAT SA,48.272833,7.478333,173,True,1992-03-21,2022-12-31,False,True,1992-03-21,2022-12-31,False,True,1992-03-21,2022-12-31,False,True,1992-03-21,2022-12-31,False,True,1992-03-21,2022-12-31,False,True,1992-03-21,2022-12-31,False,True,1992-03-21,2022-12-31,False,True,1992-03-21,2022-12-31,False,False,,,,False,,,,True,2004-10-17,2022-12-31,False,True,1992-03-21,2022-12-31,False,False,,,,True,1993-01-02,2022-12-31,False,True,1993-01-02,2022-12-31,False,True,1993-01-02,2022-12-31,False,True,1992-03-21,2022-12-31,False,True,1992-03-21,2022-12-31,False,True,1992-03-21,2022-12-31,False,False,,,,False,,,,False,,,,True,2019-09-26,2022-12-31,False,False,,,,True,2019-09-26,2022-12-31,False,False,,,
67463002_SELTZ,67463002,SELTZ,48.8935,8.102833,120,True,1988-04-01,2022-12-31,False,False,,,,False,,,,False,,,,False,,,,False,,,,False,,,,False,,,,False,,,,False,,,,False,,,,False,,,,False,,,,False,,,,False,,,,False,,,,False,,,,False,,,,False,,,,False,,,,False,,,,False,,,,False,,,,False,,,,False,,,,False,,,
67473001_SOULTZ LES BAIN,67473001,SOULTZ LES BAIN,48.57,7.485,190,True,1967-03-01,1982-11-30,False,False,,,,False,,,,False,,,,False,,,,False,,,,False,,,,False,,,,False,,,,False,,,,False,,,,False,,,,False,,,,False,,,,False,,,,False,,,,False,,,,False,,,,False,,,,False,,,,False,,,,False,,,,False,,,,False,,,,False,,,,False,,,
67476001_STATTMATTEN,67476001,STATTMATTEN,48.794167,8.001333,120,True,1953-12-01,2015-01-31,False,True,1972-01-01,2015-01-31,True,False,,,,True,1972-01-01,2015-01-31,True,False,,,,False,,,,True,1972-01-01,2015-01-31,True,True,1972-01-01,2015-01-31,True,False,,,,False,,,,False,,,,False,,,,False,,,,False,,,,False,,,,False,,,,False,,,,False,,,,False,,,,False,,,,False,,,,False,,,,False,,,,False,,,,False,,,,False,,,
67476002_STATTMATTEN SA,67476002,STATTMATTEN SA,48.795167,8.002333,121,True,1986-10-01,2017-10-04,False,True,1986-10-01,2017-10-04,False,True,1986-10-01,2017-10-04,False,True,1986-10-01,2017-10-04,False,True,1986-10-01,2017-10-03,False,True,1986-10-01,2017-10-03,False,True,1986-10-01,2017-10-04,False,True,1986-10-01,2017-10-04,False,False,,,,False,,,,True,2004-10-17,2017-10-04,False,True,1986-10-01,2008-09-09,False,False,,,,True,1993-01-01,2008-01-01,False,True,1993-01-01,2008-01-01,False,True,1993-01-01,2008-01-01,False,True,1986-10-01,2008-09-09,False,True,1986-10-01,2008-09-09,False,True,1986-10-01,2008-09-09,False,False,,,,False,,,,False,,,,False,,,,False,,,,False,,,,False,,,
67482001_STRASBOURG - BOTANIQUE,67482001,STRASBOURG - BOTANIQUE,48.581833,7.768833,139,True,1950-01-01,2022-12-31,True,True,1950-01-01,2022-12-31,True,True,1991-01-02,2022-12-31,False,True,1950-01-01,2022-12-31,True,True,1991-01-01,2022-12-31,False,True,1991-01-01,2022-12-31,False,True,1950-01-01,2022-12-31,True,True,1950-01-01,2022-12-31,True,False,,,,False,,,,True,2004-10-17,2022-12-31,False,False,,,,False,,,,False,,,,False,,,,False,,,,False,,,,False,,,,False,,,,False,,,,False,,,,False,,,,False,,,,False,,,,False,,,,False,,,
67482013_STRASBOURG - ZIEGELAU,67482013,STRASBOURG - ZIEGELAU,48.562667,7.763167,139,True,1952-05-01,1952-12-31,True,False,,,,False,,,,False,,,,False,,,,False,,,,False,,,,False,,,,False,,,,False,,,,False,,,,False,,,,False,,,,False,,,,False,,,,False,,,,False,,,,False,,,,False,,,,False,,,,False,,,,False,,,,False,,,,False,,,,False,,,,False,,,
67486001_SUNDHOUSE,67486001,SUNDHOUSE,48.251667,7.603333,160,True,1972-01-01,1986-09-30,True,True,1981-01-01,1986-07-31,True,False,,,,True,1981-01-01,1986-07-31,True,False,,,,False,,,,True,1981-01-01,1986-07-31,True,True,1981-01-01,1986-07-31,True,False,,,,False,,,,False,,,,False,,,,False,,,,False,,,,False,,,,False,,,,False,,,,False,,,,False,,,,False,,,,False,,,,False,,,,False,,,,False,,,,False,,,,False,,,
67492001_TRAENHEIM SA,67492001,TRAENHEIM SA,48.593333,7.47,210,True,1986-06-06,1998-05-31,False,True,1986-06-06,1998-06-30,False,True,1987-06-01,1998-06-07,False,True,1986-06-06,1998-06-30,False,True,1987-06-01,1998-06-04,False,True,1987-06-01,1998-06-07,False,True,1986-06-06,1998-06-30,False,True,1986-06-06,1998-06-30,False,True,1987-06-01,1998-06-07,False,False,,,,False,,,,False,,,,False,,,,False,,,,False,,,,False,,,,False,,,,False,,,,False,,,,False,,,,False,,,,False,,,,False,,,,False,,,,False,,,,False,,,
67492002_TRAENHEIM,67492002,TRAENHEIM,48.595,7.473333,210,True,1984-01-01,1997-06-30,False,True,1984-01-01,1997-06-30,False,False,,,,True,1984-01-01,1997-06-30,False,False,,,,False,,,,True,1984-01-01,1997-06-30,False,True,1984-01-01,1997-06-30,False,False,,,,False,,,,False,,,,False,,,,False,,,,False,,,,False,,,,False,,,,False,,,,False,,,,False,,,,False,,,,False,,,,False,,,,False,,,,False,,,,False,,,,False,,,
67495001_TRUCHTERSHEIM,67495001,TRUCHTERSHEIM,48.661667,7.605,180,True,1968-10-01,1992-12-31,False,False,,,,False,,,,False,,,,False,,,,False,,,,False,,,,False,,,,False,,,,False,,,,False,,,,False,,,,False,,,,False,,,,False,,,,False,,,,False,,,,False,,,,False,,,,False,,,,False,,,,False,,,,False,,,,False,,,,False,,,,False,,,
67498001_UHRWILLER_SAPC,67498001,UHRWILLER_SAPC,48.883667,7.5815,217,True,2003-08-10,2022-12-31,False,True,2003-08-11,2022-12-31,False,True,2003-12-02,2022-12-31,False,True,2003-08-10,2022-12-31,False,True,2003-12-01,2022-12-31,False,True,2003-08-11,2022-12-31,False,True,2003-08-11,2022-12-31,False,True,2003-08-11,2022-12-31,False,False,,,,False,,,,True,2004-10-17,2022-12-31,False,False,,,,True,2003-08-11,2018-08-08,False,False,,,,False,,,,False,,,,False,,,,False,,,,False,,,,True,2003-08-11,2018-08-09,False,False,,,,True,2003-10-01,2007-08-16,False,False,,,,False,,,,False,,,,False,,,
67507001_VILLE,67507001,VILLE,48.345,7.305,253,True,1950-01-01,1985-08-31,False,False,,,,False,,,,False,,,,False,,,,False,,,,False,,,,False,,,,False,,,,False,,,,False,,,,False,,,,False,,,,False,,,,False,,,,False,,,,False,,,,False,,,,False,,,,False,,,,False,,,,False,,,,False,,,,False,,,,False,,,,False,,,
67507003_VILLE,67507003,VILLE,48.343,7.306167,264,True,1989-10-01,2022-12-31,False,True,1990-02-01,2022-12-31,False,True,2021-06-23,2022-12-31,True,True,1990-02-01,2022-12-31,False,True,2021-06-23,2022-12-31,True,True,2021-06-23,2022-12-31,True,True,1990-02-01,2022-12-31,False,True,1990-02-01,2022-12-31,False,False,,,,False,,,,True,2021-06-23,2022-12-31,False,False,,,,False,,,,False,,,,False,,,,False,,,,False,,,,False,,,,False,,,,False,,,,False,,,,False,,,,False,,,,False,,,,False,,,,False,,,
67513001_BELMONT,67513001,BELMONT,48.411667,7.276667,1069,True,1977-03-01,2002-07-31,True,True,1978-01-01,2002-07-31,True,False,,,,True,1978-01-01,2002-07-31,True,False,,,,False,,,,True,1978-01-01,2002-07-31,True,True,1978-01-01,2002-07-31,True,False,,,,False,,,,False,,,,False,,,,False,,,,False,,,,False,,,,False,,,,False,,,,False,,,,False,,,,False,,,,False,,,,False,,,,False,,,,False,,,,False,,,,False,,,
67513003_WALDERSBACH,67513003,WALDERSBACH,48.415,7.215,1040,True,1967-01-01,1969-09-30,False,False,,,,False,,,,False,,,,False,,,,False,,,,False,,,,False,,,,False,,,,False,,,,False,,,,False,,,,False,,,,False,,,,False,,,,False,,,,False,,,,False,,,,False,,,,False,,,,False,,,,False,,,,False,,,,False,,,,False,,,,False,,,
67516001_WALTENHEIM-SUR-ZORN,67516001,WALTENHEIM-SUR-ZORN,48.7435,7.61,252,True,2004-09-01,2022-12-31,True,True,2004-09-01,2022-12-31,True,True,2004-09-09,2022-12-31,False,True,2004-09-01,2022-12-31,True,True,2004-09-08,2022-12-31,False,True,2004-09-01,2022-12-31,False,True,2004-09-01,2022-12-31,True,True,2004-09-01,2022-12-31,True,False,,,,False,,,,True,2004-10-18,2022-12-31,False,True,2004-09-01,2022-12-31,False,False,,,,True,2004-10-19,2022-12-31,False,True,2004-10-19,2022-12-31,False,True,2004-10-19,2022-12-31,False,True,2004-09-09,2022-12-31,False,True,2004-09-09,2022-12-31,False,True,2004-09-09,2022-12-31,False,False,,,,False,,,,False,,,,True,2019-09-26,2022-12-31,False,False,,,,True,2019-09-26,2022-12-31,False,False,,,
67519001_LA WANTZENAU SA,67519001,LA WANTZENAU SA,48.634167,7.832333,135,True,1990-03-01,2015-10-01,True,True,1990-03-01,2015-09-30,True,True,1991-01-02,2015-09-29,False,True,1990-03-01,2015-10-01,True,True,1991-01-01,2015-10-01,False,True,1991-01-01,2015-10-01,False,True,1990-03-01,2015-09-30,True,True,1990-03-01,2015-09-30,True,True,1998-01-01,2014-10-06,False,False,,,,True,2004-10-17,2015-10-01,False,True,1991-01-01,2015-10-01,False,False,,,,True,1993-01-02,2008-01-01,False,True,1993-01-02,2008-01-01,False,True,1993-01-02,2008-01-01,False,True,1991-01-01,2015-10-01,False,True,1991-01-01,2015-10-01,False,True,1991-01-01,2015-10-01,False,False,,,,False,,,,False,,,,False,,,,False,,,,False,,,,False,,,
67519002_LA WANTZENAU,67519002,LA WANTZENAU,48.655833,7.838167,131,True,2015-09-01,2020-11-15,True,False,,,,False,,,,False,,,,False,,,,False,,,,False,,,,False,,,,False,,,,False,,,,False,,,,False,,,,False,,,,False,,,,False,,,,False,,,,False,,,,False,,,,False,,,,False,,,,False,,,,False,,,,False,,,,False,,,,False,,,,False,,,
67528001_WEYER,67528001,WEYER,48.855,7.161667,280,True,1950-01-01,1953-05-31,False,False,,,,False,,,,False,,,,False,,,,False,,,,False,,,,False,,,,False,,,,False,,,,False,,,,False,,,,False,,,,False,,,,False,,,,False,,,,False,,,,False,,,,False,,,,False,,,,False,,,,False,,,,False,,,,False,,,,False,,,,False,,,
67535001_WIMMENAU,67535001,WIMMENAU,48.915,7.410333,220,True,2013-11-19,2015-07-31,False,False,,,,False,,,,False,,,,False,,,,False,,,,False,,,,False,,,,False,,,,False,,,,False,,,,False,,,,False,,,,False,,,,False,,,,False,,,,False,,,,False,,,,False,,,,False,,,,False,,,,False,,,,False,,,,False,,,,False,,,,False,,,
67536001_WINDSTEIN,67536001,WINDSTEIN,48.993333,7.683333,250,True,1950-01-01,1950-06-30,True,False,,,,False,,,,False,,,,False,,,,False,,,,False,,,,False,,,,False,,,,False,,,,False,,,,False,,,,False,,,,False,,,,False,,,,False,,,,False,,,,False,,,,False,,,,False,,,,False,,,,False,,,,False,,,,False,,,,False,,,,False,,,
67544001_WISSEMBOURG,67544001,WISSEMBOURG,49.029167,7.959667,154,True,1966-03-01,1997-10-31,False,False,,,,False,,,,False,,,,False,,,,False,,,,False,,,,False,,,,False,,,,False,,,,False,,,,False,,,,False,,,,False,,,,False,,,,False,,,,False,,,,False,,,,False,,,,False,,,,False,,,,False,,,,False,,,,False,,,,False,,,,False,,,
67544003_WISSEMBOURG - PV,67544003,WISSEMBOURG - PV,49.036167,7.935333,182,True,1986-10-01,2008-12-31,True,True,1970-01-01,2008-12-31,True,False,,,,True,1970-01-01,2008-12-31,True,False,,,,False,,,,True,1970-01-01,2008-12-31,True,True,1970-01-01,2008-12-31,True,False,,,,False,,,,False,,,,False,,,,False,,,,False,,,,False,,,,False,,,,False,,,,False,,,,False,,,,False,,,,False,,,,False,,,,False,,,,False,,,,False,,,,False,,,
67544004_WISSEMBOURG,67544004,WISSEMBOURG,49.036667,7.94,172,False,,,,True,1967-01-01,1969-12-31,True,False,,,,True,1967-01-01,1969-12-31,True,False,,,,False,,,,True,1967-01-01,1969-12-31,True,True,1967-01-01,1969-12-31,True,False,,,,False,,,,False,,,,False,,,,False,,,,False,,,,False,,,,False,,,,False,,,,False,,,,False,,,,False,,,,False,,,,False,,,,False,,,,False,,,,False,,,,False,,,
67555001_ZEHNACKER,67555001,ZEHNACKER,48.6705,7.447167,255,True,2007-01-01,2021-12-31,False,False,,,,False,,,,False,,,,False,,,,False,,,,False,,,,False,,,,False,,,,False,,,,False,,,,False,,,,False,,,,False,,,,False,,,,False,,,,False,,,,False,,,,False,,,,False,,,,False,,,,False,,,,False,,,,False,,,,False,,,,False,,,
67557001_ZELWILLER,67557001,ZELWILLER,48.396667,7.496667,205,True,1967-03-01,1971-12-31,False,False,,,,False,,,,False,,,,False,,,,False,,,,False,,,,False,,,,False,,,,False,,,,False,,,,False,,,,False,,,,False,,,,False,,,,False,,,,False,,,,False,,,,False,,,,False,,,,False,,,,False,,,,False,,,,False,,,,False,,,,False,,,
68001001_ALGOLSHEIM SAD,68001001,ALGOLSHEIM SAD,48.003333,7.52,198,True,1987-01-01,1997-10-31,False,True,1987-01-01,1997-10-31,True,True,1987-01-01,1997-10-31,False,True,1987-01-01,1997-10-31,True,True,1987-01-01,1997-10-31,False,True,1987-09-01,1997-11-03,False,True,1987-01-01,1997-10-31,True,True,1987-01-01,1997-10-31,True,True,1986-03-13,1991-10-14,False,False,,,,False,,,,True,1987-08-23,1997-11-03,False,False,,,,False,,,,False,,,,False,,,,True,1986-03-12,1997-10-31,False,True,1986-03-12,1997-10-31,False,True,1986-03-12,1997-10-31,False,False,,,,False,,,,False,,,,False,,,,False,,,,False,,,,False,,,
68004001_ALTKIRCH,68004001,ALTKIRCH,47.618333,7.253333,350,True,1953-01-01,2004-08-31,False,True,1972-06-01,2004-08-31,True,True,1987-01-01,2004-08-23,False,True,1972-06-01,2004-08-31,True,True,1987-01-01,2004-08-23,False,True,1987-01-01,2004-08-31,False,True,1972-06-01,2004-08-31,True,True,1972-06-01,2004-08-31,True,True,1989-01-27,2004-08-23,False,False,,,,True,2001-11-20,2004-08-23,False,True,1987-01-01,2004-08-31,False,False,,,,False,,,,False,,,,False,,,,True,1987-01-01,2004-08-23,False,True,1987-01-01,2004-08-23,False,True,1987-01-01,2004-08-23,False,False,,,,False,,,,False,,,,False,,,,False,,,,False,,,,False,,,
68011001_ASPACH LE BAS,68011001,ASPACH LE BAS,47.76,7.141667,309,True,1950-01-01,1976-01-31,False,False,,,,False,,,,False,,,,False,,,,False,,,,False,,,,False,,,,False,,,,False,,,,False,,,,False,,,,False,,,,False,,,,False,,,,False,,,,False,,,,False,,,,False,,,,False,,,,False,,,,False,,,,False,,,,False,,,,False,,,,False,,,
68014001_AUBURE,68014001,AUBURE,48.197333,7.222333,796,True,1971-01-01,2015-12-31,False,False,,,,False,,,,False,,,,False,,,,False,,,,False,,,,False,,,,False,,,,False,,,,False,,,,False,,,,False,,,,False,,,,False,,,,False,,,,False,,,,False,,,,False,,,,False,,,,False,,,,False,,,,False,,,,False,,,,False,,,,False,,,
68014005_AUBURE SAD12,68014005,AUBURE SAD12,48.216667,7.198333,1101,True,1988-01-01,1996-12-31,False,True,1988-01-01,1996-12-31,True,True,1988-01-02,1996-12-30,False,True,1988-01-01,1996-12-31,False,True,1988-01-01,1996-12-31,False,True,1988-01-01,1996-12-31,False,True,1988-01-01,1996-12-31,False,True,1988-01-01,1996-12-31,False,True,1989-02-03,1996-12-31,False,False,,,,False,,,,True,1988-01-01,1996-12-31,False,False,,,,False,,,,False,,,,False,,,,True,1988-01-01,1996-12-31,False,True,1988-01-05,1996-12-31,False,True,1988-01-01,1996-12-31,False,False,,,,False,,,,False,,,,False,,,,False,,,,False,,,,False,,,
68015001_BALDERSHEIM,68015001,BALDERSHEIM,47.796667,7.46,230,True,1955-05-01,2001-02-28,False,False,,,,False,,,,False,,,,False,,,,False,,,,False,,,,False,,,,False,,,,False,,,,False,,,,False,,,,False,,,,False,,,,False,,,,False,,,,False,,,,False,,,,False,,,,False,,,,False,,,,False,,,,False,,,,False,,,,False,,,,False,,,
68028001_BERGHEIM-INRAE,68028001,BERGHEIM-INRAE,48.216333,7.345833,309,True,1987-05-01,2022-12-31,False,True,1987-05-01,2022-12-31,True,True,1987-05-02,2022-12-31,False,True,1987-05-01,2022-12-31,False,True,1987-05-01,2022-12-31,False,True,1987-05-01,2022-12-31,False,True,1987-05-01,2022-12-31,False,True,1987-05-01,2022-12-31,False,True,1987-05-02,2022-12-31,False,True,1988-06-10,2022-12-31,False,True,2001-11-20,2008-06-18,False,False,,,,True,1987-05-01,2022-12-31,False,False,,,,False,,,,False,,,,False,,,,False,,,,False,,,,True,1987-05-01,2022-12-31,False,True,1999-01-22,2022-12-31,False,True,1987-05-01,2022-12-31,False,False,,,,False,,,,False,,,,False,,,
68040001_BITS.-LES-THANN,68040001,BITS.-LES-THANN,47.824333,7.069,395,True,1972-09-01,2021-11-30,True,True,1987-01-01,2021-11-30,False,False,,,,True,1987-01-01,2021-11-30,False,False,,,,False,,,,True,1987-01-01,2021-11-30,False,True,1987-01-01,2021-11-30,False,False,,,,False,,,,False,,,,False,,,,False,,,,False,,,,False,,,,False,,,,False,,,,False,,,,False,,,,False,,,,False,,,,False,,,,False,,,,False,,,,False,,,,False,,,
68044002_LE BONHOMME,68044002,LE BONHOMME,48.171667,7.113333,830,True,1985-09-01,1986-05-31,False,False,,,,False,,,,False,,,,False,,,,False,,,,False,,,,False,,,,False,,,,False,,,,False,,,,False,,,,False,,,,False,,,,False,,,,False,,,,False,,,,False,,,,False,,,,False,,,,False,,,,False,,,,False,,,,False,,,,False,,,,False,,,
68046001_BOURBACH LE HAUT,68046001,BOURBACH LE HAUT,47.795,7.030167,547,True,1964-11-01,1967-11-30,False,False,,,,False,,,,False,,,,False,,,,False,,,,False,,,,False,,,,False,,,,False,,,,False,,,,False,,,,False,,,,False,,,,False,,,,False,,,,False,,,,False,,,,False,,,,False,,,,False,,,,False,,,,False,,,,False,,,,False,,,,False,,,
68051001_BREITENBACH,68051001,BREITENBACH,48.021333,7.103667,466,True,1977-02-01,2021-11-30,False,False,,,,False,,,,False,,,,False,,,,False,,,,False,,,,False,,,,False,,,,False,,,,False,,,,False,,,,False,,,,False,,,,False,,,,False,,,,False,,,,False,,,,False,,,,False,,,,False,,,,False,,,,False,,,,False,,,,False,,,,False,,,
68060001_BURNHAUPT LE HAUT,68060001,BURNHAUPT LE HAUT,47.74,7.143333,304,True,1976-05-01,1993-12-31,False,False,,,,False,,,,False,,,,False,,,,False,,,,False,,,,False,,,,False,,,,False,,,,False,,,,False,,,,False,,,,False,,,,False,,,,False,,,,False,,,,False,,,,False,,,,False,,,,False,,,,False,,,,False,,,,False,,,,False,,,,False,,,
68060002_BURNHAUPT - SA,68060002,BURNHAUPT - SA,47.738333,7.143333,304,True,1992-10-01,1996-08-31,True,True,1992-10-01,1996-08-31,True,True,1992-10-02,1996-08-31,False,True,1992-10-01,1996-08-31,True,True,1992-10-01,1996-08-31,False,True,1992-10-02,1996-08-31,False,True,1992-10-01,1996-08-31,True,True,1992-10-01,1996-08-31,True,False,,,,False,,,,False,,,,True,1992-10-01,1996-08-31,True,False,,,,False,,,,False,,,,False,,,,True,1992-10-01,1996-08-31,False,True,1992-10-01,1996-08-31,False,True,1992-10-01,1996-08-31,False,False,,,,False,,,,False,,,,False,,,,False,,,,False,,,,False,,,
68062001_CARSPACH,68062001,CARSPACH,47.632,7.212833,332,True,2004-08-31,2022-12-31,True,True,2004-09-01,2022-12-31,True,True,2004-09-01,2022-12-31,False,True,2004-09-01,2022-12-31,True,True,2004-09-01,2022-12-31,False,True,2004-09-01,2022-12-31,False,True,2004-09-01,2022-12-31,True,True,2004-09-01,2022-12-31,True,False,,,,False,,,,True,2004-09-01,2022-12-31,False,True,2004-09-01,2022-12-31,False,False,,,,True,2004-09-01,2022-12-31,False,True,2004-09-01,2022-12-31,False,True,2004-09-01,2022-12-31,False,True,2004-09-01,2022-12-31,False,True,2004-09-01,2022-12-31,False,True,2004-09-01,2022-12-31,False,False,,,,False,,,,False,,,,True,2019-09-26,2022-12-31,False,False,,,,True,2019-09-26,2022-12-31,False,False,,,
68066001_COLMAR-INRAE,68066001,COLMAR-INRAE,48.063333,7.33,202,True,1972-04-01,2022-12-31,True,True,1972-04-01,2022-12-31,True,True,1987-11-01,2022-12-31,False,True,1972-04-01,2022-12-31,True,True,1987-11-01,2022-12-31,False,True,1987-11-01,2022-12-31,False,True,1972-04-01,2022-12-31,True,True,1972-04-01,2022-12-31,True,True,1988-06-25,2022-12-31,False,True,2000-03-09,2022-12-31,False,True,2001-11-20,2021-04-20,False,True,1988-07-01,2007-07-01,False,True,2007-06-16,2022-12-31,False,True,1999-12-29,2007-07-01,False,True,1999-12-29,2007-06-21,False,True,1999-12-29,2007-07-01,False,True,1988-07-01,2007-07-01,False,True,1988-07-01,2006-06-19,False,True,1988-07-01,2007-07-01,False,True,2007-06-16,2022-12-31,False,True,2007-06-17,2022-12-31,False,True,2007-06-16,2022-12-31,False,False,,,,False,,,,False,,,,False,,,
68066002_COLMAR - USINES MUNICIPALES,68066002,COLMAR - USINES MUNICIPALES,48.076667,7.355,190,True,1950-01-01,1973-03-31,True,True,1950-01-01,1972-03-31,True,False,,,,True,1950-01-01,1972-03-31,False,False,,,,False,,,,True,1950-01-01,1972-03-31,False,True,1950-01-01,1972-03-31,False,False,,,,False,,,,False,,,,False,,,,False,,,,False,,,,False,,,,False,,,,False,,,,False,,,,False,,,,False,,,,False,,,,False,,,,False,,,,False,,,,False,,,,False,,,
68066003_COLMAR,68066003,COLMAR,48.063333,7.33,200,False,,,,False,,,,False,,,,False,,,,False,,,,False,,,,False,,,,False,,,,False,,,,False,,,,False,,,,True,1993-02-05,1993-04-17,False,False,,,,False,,,,False,,,,False,,,,False,,,,False,,,,False,,,,False,,,,False,,,,False,,,,False,,,,False,,,,False,,,,False,,,
68066004_COLMAR - HOUSS.,68066004,COLMAR - HOUSS.,48.1095,7.3605,192,False,,,,True,1996-12-15,2014-12-01,True,True,1997-01-01,2014-12-01,False,True,1996-12-15,2014-12-01,True,True,1997-01-01,2014-12-01,False,True,1997-01-01,2014-12-01,False,True,1996-12-15,2014-12-01,True,True,1996-12-15,2014-12-01,True,False,,,,False,,,,True,2001-11-20,2014-12-01,False,True,1997-01-01,2014-12-01,False,False,,,,True,1999-12-30,2008-01-01,False,True,1999-12-30,2008-01-01,False,True,1999-12-30,2008-01-01,False,True,1997-01-01,2014-12-01,False,True,1997-01-01,2014-12-01,False,True,1997-01-01,2014-12-01,False,False,,,,False,,,,False,,,,False,,,,False,,,,False,,,,False,,,
68067002_COURTAVON - GENIE RURAL,68067002,COURTAVON - GENIE RURAL,47.461667,7.198333,448,True,1975-01-01,1986-12-31,False,True,1975-01-01,1976-12-31,True,False,,,,True,1975-01-01,1976-12-31,True,False,,,,False,,,,True,1975-01-01,1976-12-31,True,True,1975-01-01,1976-12-31,True,False,,,,False,,,,False,,,,False,,,,False,,,,False,,,,False,,,,False,,,,False,,,,False,,,,False,,,,False,,,,False,,,,False,,,,False,,,,False,,,,False,,,,False,,,
68090001_FERRETTE,68090001,FERRETTE,47.498333,7.308833,480,True,1985-01-01,2005-09-30,True,False,,,,False,,,,False,,,,False,,,,False,,,,False,,,,False,,,,False,,,,False,,,,False,,,,False,,,,False,,,,False,,,,False,,,,False,,,,False,,,,False,,,,False,,,,False,,,,False,,,,False,,,,False,,,,False,,,,False,,,,False,,,
68095001_FORTSCHWIHR,68095001,FORTSCHWIHR,48.088,7.451667,185,True,2007-01-15,2020-12-31,False,False,,,,False,,,,False,,,,False,,,,False,,,,False,,,,False,,,,False,,,,False,,,,False,,,,False,,,,False,,,,False,,,,False,,,,False,,,,False,,,,False,,,,False,,,,False,,,,False,,,,False,,,,False,,,,False,,,,False,,,,False,,,
68102001_GEISHOUSE_SAPC,68102001,GEISHOUSE_SAPC,47.875333,7.056833,618,True,1964-08-01,2022-12-31,True,True,1965-01-01,2022-12-31,True,True,1999-01-01,2022-12-31,False,True,1965-01-01,2022-12-31,True,True,1999-01-01,2022-12-31,False,True,1999-01-01,2022-12-31,False,True,1965-01-01,2022-12-31,True,True,1965-01-01,2022-12-31,True,False,,,,False,,,,True,2001-11-20,2022-12-31,False,False,,,,False,,,,False,,,,False,,,,False,,,,False,,,,False,,,,False,,,,False,,,,False,,,,False,,,,False,,,,False,,,,False,,,,True,2004-10-21,2004-11-25,False
68105001_GILDWILLER,68105001,GILDWILLER,47.6905,7.132167,295,True,1996-09-01,2021-12-31,True,False,,,,False,,,,False,,,,False,,,,False,,,,False,,,,False,,,,False,,,,False,,,,False,,,,False,,,,False,,,,False,,,,False,,,,False,,,,False,,,,False,,,,False,,,,False,,,,False,,,,False,,,,False,,,,False,,,,False,,,,False,,,
68107001_GOMMERSDORF,68107001,GOMMERSDORF,47.641667,7.13,310,True,1974-01-01,1984-08-31,False,False,,,,False,,,,False,,,,False,,,,False,,,,False,,,,False,,,,False,,,,False,,,,False,,,,False,,,,False,,,,False,,,,False,,,,False,,,,False,,,,False,,,,False,,,,False,,,,False,,,,False,,,,False,,,,False,,,,False,,,,False,,,
68112001_GUEBWILLER - LIEBENBERG,68112001,GUEBWILLER - LIEBENBERG,47.916333,7.195333,337,True,1961-01-01,1991-05-31,False,True,1968-01-01,1991-04-30,False,False,,,,True,1968-01-01,1991-04-30,False,False,,,,False,,,,True,1968-01-01,1991-04-30,False,True,1968-01-01,1991-04-30,False,False,,,,False,,,,False,,,,False,,,,False,,,,False,,,,False,,,,False,,,,False,,,,False,,,,False,,,,False,,,,False,,,,False,,,,False,,,,False,,,,False,,,,False,,,
68112002_GUEBWILLER - AX,68112002,GUEBWILLER - AX,47.903167,7.1975,380,True,1950-01-01,1982-12-31,False,False,,,,False,,,,False,,,,False,,,,False,,,,False,,,,False,,,,False,,,,False,,,,False,,,,False,,,,False,,,,False,,,,False,,,,False,,,,False,,,,False,,,,False,,,,False,,,,False,,,,False,,,,False,,,,False,,,,False,,,,False,,,
68112005_GUEBWILLER,68112005,GUEBWILLER,47.903667,7.225833,273,True,1991-10-01,2022-12-31,True,True,1991-12-01,2022-12-31,True,True,2022-12-14,2022-12-31,True,True,1991-12-01,2022-12-31,True,True,2022-12-13,2022-12-31,True,True,2022-12-14,2022-12-31,True,True,1991-12-01,2022-12-31,True,True,1991-12-01,2022-12-31,True,False,,,,False,,,,True,2022-12-14,2022-12-31,True,False,,,,False,,,,False,,,,False,,,,False,,,,False,,,,False,,,,False,,,,False,,,,False,,,,False,,,,False,,,,False,,,,False,,,,False,,,
68137001_HINDLINGEN,68137001,HINDLINGEN,47.574,7.135333,350,True,1991-07-01,2011-02-28,True,False,,,,False,,,,False,,,,False,,,,False,,,,False,,,,False,,,,False,,,,False,,,,False,,,,False,,,,False,,,,False,,,,False,,,,False,,,,False,,,,False,,,,False,,,,False,,,,False,,,,False,,,,False,,,,False,,,,False,,,,False,,,
68151002_HUSSEREN WESSER,68151002,HUSSEREN WESSER,47.88,6.986667,445,True,1979-05-01,1999-12-31,True,False,,,,False,,,,False,,,,False,,,,False,,,,False,,,,False,,,,False,,,,False,,,,False,,,,False,,,,False,,,,False,,,,False,,,,False,,,,False,,,,False,,,,False,,,,False,,,,False,,,,False,,,,False,,,,False,,,,False,,,,False,,,
68157001_JEBSHEIM,68157001,JEBSHEIM,48.124,7.474833,177,True,1969-05-01,2022-11-30,False,False,,,,False,,,,False,,,,False,,,,False,,,,False,,,,False,,,,False,,,,False,,,,False,,,,False,,,,False,,,,False,,,,False,,,,False,,,,False,,,,False,,,,False,,,,False,,,,False,,,,False,,,,False,,,,False,,,,False,,,,False,,,
68162001_KAYSERSBERG,68162001,KAYSERSBERG,48.139333,7.266667,246,True,1950-01-01,2019-05-31,False,True,1997-01-01,2019-05-11,False,False,,,,True,1997-01-01,2019-05-11,False,False,,,,False,,,,True,1997-01-01,2019-05-11,False,True,1997-01-01,2019-05-11,False,False,,,,False,,,,False,,,,False,,,,False,,,,False,,,,False,,,,False,,,,False,,,,False,,,,False,,,,False,,,,False,,,,False,,,,False,,,,False,,,,False,,,,False,,,
68165001_KIFFIS,68165001,KIFFIS,47.438,7.355667,576,True,1950-01-01,2022-12-31,False,True,2020-08-19,2022-12-31,True,True,2020-08-19,2022-12-31,True,True,2020-08-19,2022-12-31,True,True,2020-08-19,2022-12-31,True,True,2020-08-19,2022-12-31,True,True,2020-08-19,2022-12-31,True,True,2020-08-19,2022-12-31,True,False,,,,False,,,,True,2020-08-19,2022-12-31,False,False,,,,False,,,,False,,,,False,,,,False,,,,False,,,,False,,,,False,,,,False,,,,False,,,,False,,,,False,,,,False,,,,False,,,,False,,,
68167001_KIRCHBERG,68167001,KIRCHBERG,47.798,6.952167,460,True,2005-09-01,2016-08-10,True,False,,,,False,,,,False,,,,False,,,,False,,,,False,,,,False,,,,False,,,,False,,,,False,,,,False,,,,False,,,,False,,,,False,,,,False,,,,False,,,,False,,,,False,,,,False,,,,False,,,,False,,,,False,,,,False,,,,False,,,,False,,,
68171001_KRUTH MF,68171001,KRUTH MF,47.939833,6.959167,500,True,1953-02-01,2011-08-31,False,False,,,,False,,,,False,,,,False,,,,False,,,,False,,,,False,,,,False,,,,False,,,,False,,,,False,,,,False,,,,False,,,,False,,,,False,,,,False,,,,False,,,,False,,,,False,,,,False,,,,False,,,,False,,,,False,,,,False,,,,False,,,
68171002_KRUTH_SAPC,68171002,KRUTH_SAPC,47.944167,6.955,512,True,1995-05-01,2022-12-31,False,True,1996-01-01,2022-12-31,False,True,2008-10-08,2022-12-31,False,True,1996-01-01,2022-12-31,False,True,2008-10-07,2022-12-31,False,True,2008-10-08,2022-12-31,False,True,1996-01-01,2022-12-31,False,True,1996-01-01,2022-12-31,False,False,,,,False,,,,True,2008-10-08,2022-12-31,False,False,,,,False,,,,False,,,,False,,,,False,,,,False,,,,False,,,,False,,,,False,,,,False,,,,False,,,,False,,,,False,,,,False,,,,False,,,
68177001_LAUTENBACH,68177001,LAUTENBACH,47.941667,7.165,396,True,1960-01-01,1995-02-28,False,False,,,,False,,,,False,,,,False,,,,False,,,,False,,,,False,,,,False,,,,False,,,,False,,,,False,,,,False,,,,False,,,,False,,,,False,,,,False,,,,False,,,,False,,,,False,,,,False,,,,False,,,,False,,,,False,,,,False,,,,False,,,
68178001_LAUTENBACHZELL,68178001,LAUTENBACHZELL,47.933333,7.083333,400,True,1961-02-01,1968-12-31,True,False,,,,False,,,,False,,,,False,,,,False,,,,False,,,,False,,,,False,,,,False,,,,False,,,,False,,,,False,,,,False,,,,False,,,,False,,,,False,,,,False,,,,False,,,,False,,,,False,,,,False,,,,False,,,,False,,,,False,,,,False,,,
68178002_LAUTENBACHZELL - SENGERN,68178002,LAUTENBACHZELL - SENGERN,47.933333,7.083333,400,True,1960-01-01,1966-12-31,False,False,,,,False,,,,False,,,,False,,,,False,,,,False,,,,False,,,,False,,,,False,,,,False,,,,False,,,,False,,,,False,,,,False,,,,False,,,,False,,,,False,,,,False,,,,False,,,,False,,,,False,,,,False,,,,False,,,,False,,,,False,,,
68179001_LAUW,68179001,LAUW,47.758333,7.019167,380,True,2005-07-01,2021-11-30,False,False,,,,False,,,,False,,,,False,,,,False,,,,False,,,,False,,,,False,,,,False,,,,False,,,,False,,,,False,,,,False,,,,False,,,,False,,,,False,,,,False,,,,False,,,,False,,,,False,,,,False,,,,False,,,,False,,,,False,,,,False,,,
68180001_LEIMBACH,68180001,LEIMBACH,47.793333,7.108333,350,True,1965-01-01,1968-12-31,False,False,,,,False,,,,False,,,,False,,,,False,,,,False,,,,False,,,,False,,,,False,,,,False,,,,False,,,,False,,,,False,,,,False,,,,False,,,,False,,,,False,,,,False,,,,False,,,,False,,,,False,,,,False,,,,False,,,,False,,,,False,,,
68188001_LINTHAL - LAUCH,68188001,LINTHAL - LAUCH,47.936667,7.046667,940,True,1950-01-01,1993-11-30,False,True,1991-10-01,1993-11-30,False,False,,,,True,1991-10-01,1993-11-30,False,False,,,,False,,,,True,1991-10-01,1993-11-30,False,True,1991-10-01,1993-11-30,False,False,,,,False,,,,False,,,,False,,,,False,,,,False,,,,False,,,,False,,,,False,,,,False,,,,False,,,,False,,,,False,,,,False,,,,False,,,,False,,,,False,,,,False,,,
68188002_LINTHAL_SAPC,68188002,LINTHAL_SAPC,47.9415,7.114,488,True,1967-01-01,2022-12-31,False,True,2009-05-01,2022-12-31,True,True,2009-05-01,2022-12-31,False,True,2009-05-01,2022-12-31,True,True,2009-05-01,2022-12-31,False,True,2009-05-01,2022-12-31,False,True,2009-05-01,2022-12-31,True,True,2009-05-01,2022-12-31,True,False,,,,False,,,,True,2009-05-01,2022-12-31,False,False,,,,False,,,,False,,,,False,,,,False,,,,False,,,,False,,,,False,,,,False,,,,False,,,,False,,,,False,,,,False,,,,False,,,,False,,,
68190001_LUCELLE_SAPC,68190001,LUCELLE_SAPC,47.438333,7.268167,690,True,1987-05-01,2022-12-31,False,True,1987-05-02,2022-12-31,False,True,1987-05-02,2022-12-31,False,True,1987-05-01,2022-12-31,False,True,1987-05-01,2022-12-31,False,True,1987-05-01,2022-12-31,False,True,1987-05-02,2022-12-31,False,True,1987-05-02,2022-12-31,False,False,,,,False,,,,True,2001-11-20,2022-12-31,False,False,,,,False,,,,False,,,,False,,,,False,,,,False,,,,False,,,,False,,,,False,,,,False,,,,False,,,,False,,,,False,,,,False,,,,False,,,
68192001_LUTRAN,68192001,LUTRAN,47.6225,7.056167,348,True,1993-04-01,2022-01-31,False,False,,,,False,,,,False,,,,False,,,,False,,,,False,,,,False,,,,False,,,,False,,,,False,,,,False,,,,False,,,,False,,,,False,,,,False,,,,False,,,,False,,,,False,,,,False,,,,False,,,,False,,,,False,,,,False,,,,False,,,,False,,,
68193001_LUTTENBACH - MF,68193001,LUTTENBACH - MF,48.016667,7.1,480,True,1953-02-01,1975-10-31,False,False,,,,False,,,,False,,,,False,,,,False,,,,False,,,,False,,,,False,,,,False,,,,False,,,,False,,,,False,,,,False,,,,False,,,,False,,,,False,,,,False,,,,False,,,,False,,,,False,,,,False,,,,False,,,,False,,,,False,,,,False,,,
68201001_MASEVAUX,68201001,MASEVAUX,47.775,6.998333,405,True,1965-04-01,1989-12-31,False,False,,,,False,,,,False,,,,False,,,,False,,,,False,,,,False,,,,False,,,,False,,,,False,,,,False,,,,False,,,,False,,,,False,,,,False,,,,False,,,,False,,,,False,,,,False,,,,False,,,,False,,,,False,,,,False,,,,False,,,,False,,,
68201003_MASEVAUX,68201003,MASEVAUX,47.773333,6.99,417,True,1989-09-01,1998-03-31,False,True,1989-09-01,1998-03-31,False,True,1989-09-01,1998-03-31,False,True,1989-09-01,1998-03-31,False,True,1989-09-01,1998-03-31,False,True,1989-09-01,1998-03-31,False,True,1989-09-01,1998-03-31,False,True,1989-09-01,1998-03-31,False,False,,,,False,,,,False,,,,False,,,,False,,,,False,,,,False,,,,False,,,,False,,,,False,,,,False,,,,False,,,,False,,,,False,,,,False,,,,False,,,,False,,,,False,,,
68204001_METZERAL,68204001,METZERAL,48.031667,7.028333,470,True,1963-09-01,1971-05-31,False,False,,,,False,,,,False,,,,False,,,,False,,,,False,,,,False,,,,False,,,,False,,,,False,,,,False,,,,False,,,,False,,,,False,,,,False,,,,False,,,,False,,,,False,,,,False,,,,False,,,,False,,,,False,,,,False,,,,False,,,,False,,,
68205001_COLMAR-MEYENHEIM,68205001,COLMAR-MEYENHEIM,47.928667,7.407667,207,True,1957-04-01,2022-12-31,True,True,1957-04-01,2022-12-31,True,True,1984-01-01,2022-12-31,False,True,1957-04-01,2022-12-31,True,True,1984-01-01,2022-12-31,False,True,1957-04-01,2022-12-31,False,True,1957-04-01,2022-12-31,True,True,1957-04-01,2022-12-31,True,True,1984-01-01,2022-12-31,False,True,1991-01-01,2022-12-31,False,True,1991-01-01,2022-12-31,False,True,1957-09-19,2022-12-31,False,False,,,,True,1975-09-25,2022-12-31,False,True,1975-09-25,2022-12-31,False,True,1984-01-01,2022-12-31,False,True,1958-11-13,2022-12-31,False,True,1962-01-01,2022-12-31,False,True,1984-01-01,2022-12-31,False,False,,,,False,,,,False,,,,True,2012-03-30,2022-12-31,False,False,,,,True,2012-03-30,2022-12-31,False,True,2012-03-30,2022-12-31,False
68210002_MITTLACH - ERBE,68210002,MITTLACH - ERBE,48.005333,7.029333,552,True,1950-01-01,2021-12-31,False,False,,,,False,,,,False,,,,False,,,,False,,,,False,,,,False,,,,False,,,,False,,,,False,,,,False,,,,False,,,,False,,,,False,,,,False,,,,False,,,,False,,,,False,,,,False,,,,False,,,,False,,,,False,,,,False,,,,False,,,,False,,,
68213001_MOLLAU,68213001,MOLLAU,47.866667,7.0,480,True,1950-01-01,1979-04-30,False,False,,,,False,,,,False,,,,False,,,,False,,,,False,,,,False,,,,False,,,,False,,,,False,,,,False,,,,False,,,,False,,,,False,,,,False,,,,False,,,,False,,,,False,,,,False,,,,False,,,,False,,,,False,,,,False,,,,False,,,,False,,,
68221001_MUESPACH,68221001,MUESPACH,47.547667,7.382333,400,True,2002-01-01,2021-12-31,True,False,,,,False,,,,False,,,,False,,,,False,,,,False,,,,False,,,,False,,,,False,,,,False,,,,False,,,,False,,,,False,,,,False,,,,False,,,,False,,,,False,,,,False,,,,False,,,,False,,,,False,,,,False,,,,False,,,,False,,,,False,,,
68224001_MULHOUSE - ECLUSE,68224001,MULHOUSE - ECLUSE,47.75,7.3,240,True,1950-01-01,1984-07-31,False,False,,,,False,,,,False,,,,False,,,,False,,,,False,,,,False,,,,False,,,,False,,,,False,,,,False,,,,False,,,,False,,,,False,,,,False,,,,False,,,,False,,,,False,,,,False,,,,False,,,,False,,,,False,,,,False,,,,False,,,,False,,,
68224006_MULHOUSE,68224006,MULHOUSE,47.75,7.288833,245,True,1955-01-01,2022-12-31,True,True,1955-01-01,2022-12-31,False,True,1986-11-01,2022-12-31,False,True,1955-01-01,2022-12-31,False,True,1986-11-01,2022-12-31,False,True,1986-11-01,2022-12-31,False,True,1955-01-01,2022-12-31,False,True,1955-01-01,2022-12-31,False,True,1986-11-01,2017-10-20,False,False,,,,True,2001-11-20,2022-12-31,False,True,1986-11-01,2022-12-31,False,False,,,,True,1999-12-29,2022-12-31,False,True,1999-12-29,2022-12-31,False,True,1999-12-29,2022-12-31,False,True,1986-11-01,2022-12-31,False,True,1986-11-01,2022-12-31,False,True,1986-11-01,2022-12-31,False,False,,,,False,,,,False,,,,True,2019-09-26,2022-12-31,False,False,,,,True,2019-09-26,2022-12-31,False,False,,,
68226003_MUNSTER - GENDARMERIE,68226003,MUNSTER - GENDARMERIE,48.036667,7.141667,400,True,1998-03-01,2002-12-31,True,True,1998-03-01,2002-12-31,True,False,,,,True,1998-03-01,2002-12-31,True,False,,,,False,,,,True,1998-03-01,2002-12-31,True,True,1998-03-01,2002-12-31,True,False,,,,False,,,,False,,,,False,,,,False,,,,False,,,,False,,,,False,,,,False,,,,False,,,,False,,,,False,,,,False,,,,False,,,,False,,,,False,,,,False,,,,False,,,
68226005_MUNSTER_SAPC,68226005,MUNSTER_SAPC,48.047167,7.117333,420,True,2001-11-01,2022-12-31,True,True,2001-11-01,2022-12-31,True,True,2001-11-01,2022-12-31,False,True,2001-11-01,2022-12-31,True,True,2001-11-01,2022-12-31,False,True,2001-11-01,2022-12-31,False,True,2001-11-01,2022-12-31,True,True,2001-11-01,2022-12-31,True,False,,,,False,,,,True,2002-12-01,2022-12-31,False,True,2001-11-01,2018-09-02,False,False,,,,True,2001-11-01,2018-09-02,False,True,2001-11-01,2018-09-02,False,True,2001-11-01,2018-09-02,False,True,2001-11-01,2018-09-02,False,True,2001-11-01,2018-09-02,False,True,2001-11-01,2018-09-02,False,False,,,,False,,,,False,,,,False,,,,False,,,,False,,,,False,,,
68231001_NEUF-BRISACH,68231001,NEUF-BRISACH,48.026167,7.574667,195,True,1950-01-01,2022-12-31,False,True,2019-08-08,2022-12-31,True,True,2019-08-08,2022-12-31,False,True,2019-08-08,2022-12-31,True,True,2019-08-08,2022-12-31,False,True,2019-08-08,2022-12-31,False,True,2019-08-08,2022-12-31,True,True,2019-08-08,2022-12-31,True,False,,,,False,,,,True,2019-08-08,2022-12-31,False,False,,,,False,,,,False,,,,False,,,,False,,,,False,,,,False,,,,False,,,,False,,,,False,,,,False,,,,False,,,,False,,,,False,,,,False,,,
68239001_OBERBRUCK,68239001,OBERBRUCK,47.8,6.916667,460,True,1965-01-01,1968-12-31,False,False,,,,False,,,,False,,,,False,,,,False,,,,False,,,,False,,,,False,,,,False,,,,False,,,,False,,,,False,,,,False,,,,False,,,,False,,,,False,,,,False,,,,False,,,,False,,,,False,,,,False,,,,False,,,,False,,,,False,,,,False,,,
68241001_OBERENTZEN,68241001,OBERENTZEN,47.943667,7.378667,203,True,1950-01-01,2016-05-31,False,False,,,,False,,,,False,,,,False,,,,False,,,,False,,,,False,,,,False,,,,False,,,,False,,,,False,,,,False,,,,False,,,,False,,,,False,,,,False,,,,False,,,,False,,,,False,,,,False,,,,False,,,,False,,,,False,,,,False,,,,False,,,
68247001_ODEREN - VALLEE,68247001,ODEREN - VALLEE,47.909667,6.970333,457,True,1950-01-01,2022-12-31,False,True,2021-07-02,2022-12-31,True,True,2021-07-03,2022-12-31,True,True,2021-07-02,2022-12-31,True,True,2021-07-02,2022-12-31,True,True,2021-07-03,2022-12-31,True,True,2021-07-02,2022-12-31,True,True,2021-07-02,2022-12-31,True,False,,,,False,,,,True,2021-07-02,2022-12-31,False,False,,,,False,,,,False,,,,False,,,,False,,,,False,,,,False,,,,False,,,,False,,,,False,,,,False,,,,False,,,,False,,,,False,,,,False,,,
68247003_MARKSTEIN CRETE,68247003,MARKSTEIN CRETE,47.923,7.031667,1184,True,1989-01-01,2022-12-31,False,True,1994-10-26,2022-12-31,False,True,1994-10-26,2022-12-31,False,True,1994-10-26,2022-12-31,False,True,1994-10-26,2022-12-31,False,True,1994-10-26,2022-12-31,False,True,1994-10-26,2022-12-31,False,True,1994-10-26,2022-12-31,False,False,,,,False,,,,True,2001-10-08,2022-12-31,False,True,1994-10-28,2022-12-31,False,False,,,,True,1999-04-22,2022-12-31,False,True,1999-04-22,2022-12-31,False,True,1999-04-22,2022-12-31,False,True,1994-10-27,2022-12-31,False,True,1994-10-27,2022-12-31,False,True,1994-11-01,2022-12-31,False,False,,,,False,,,,False,,,,True,2019-09-26,2022-12-31,False,False,,,,True,2019-09-26,2022-12-31,False,False,,,
68249001_ORBEY - LAC NOIR,68249001,ORBEY - LAC NOIR,48.133333,7.083333,963,True,1950-01-01,1971-09-30,False,True,1959-01-01,1970-12-31,True,False,,,,True,1959-01-01,1970-12-31,True,False,,,,False,,,,True,1959-01-01,1970-12-31,True,True,1959-01-01,1970-12-31,True,False,,,,False,,,,False,,,,False,,,,False,,,,False,,,,False,,,,False,,,,False,,,,False,,,,False,,,,False,,,,False,,,,False,,,,False,,,,False,,,,False,,,,False,,,
68249002_ORBEY LAC BLANC_SAPC,68249002,ORBEY LAC BLANC_SAPC,48.135833,7.103833,1080,True,1972-08-01,2022-12-31,False,True,1977-01-01,2022-12-31,False,True,1987-01-02,2022-12-31,False,True,1977-01-01,2022-12-31,False,True,1987-01-02,2022-12-31,False,True,1987-01-01,2022-12-31,False,True,1977-01-01,2022-12-31,False,True,1977-01-01,2022-12-31,False,False,,,,False,,,,True,2009-07-28,2022-12-31,False,True,1987-01-01,1994-05-24,False,False,,,,False,,,,False,,,,False,,,,True,1987-01-01,1994-05-25,False,True,1987-01-01,1994-05-25,False,True,1987-01-01,1994-05-25,False,False,,,,False,,,,False,,,,False,,,,False,,,,False,,,,False,,,
68249003_ALLAGOUTTES,68249003,ALLAGOUTTES,48.138667,7.186833,550,True,1997-12-01,2012-06-30,False,True,1999-11-01,2005-12-31,False,False,,,,True,1999-11-01,2005-12-31,False,False,,,,False,,,,True,1999-11-01,2005-12-31,False,True,1999-11-01,2005-12-31,False,False,,,,False,,,,False,,,,False,,,,False,,,,False,,,,False,,,,False,,,,False,,,,False,,,,False,,,,False,,,,False,,,,False,,,,False,,,,False,,,,False,,,,False,,,
68249005_SURCENORD,68249005,SURCENORD,48.145,7.1285,960,True,2000-01-01,2018-06-30,False,True,2000-09-01,2017-01-31,False,False,,,,True,2000-01-01,2017-01-31,False,False,,,,False,,,,True,2000-09-01,2017-01-31,False,True,2000-09-01,2017-01-31,False,False,,,,False,,,,False,,,,False,,,,False,,,,False,,,,False,,,,False,,,,False,,,,False,,,,False,,,,False,,,,False,,,,False,,,,False,,,,False,,,,False,,,,False,,,
68267001_REININGUE,68267001,REININGUE,47.741667,7.233333,264,True,1959-01-01,1971-09-30,False,False,,,,False,,,,False,,,,False,,,,False,,,,False,,,,False,,,,False,,,,False,,,,False,,,,False,,,,False,,,,False,,,,False,,,,False,,,,False,,,,False,,,,False,,,,False,,,,False,,,,False,,,,False,,,,False,,,,False,,,,False,,,
68268001_RETZWILLER,68268001,RETZWILLER,47.625,7.091667,315,True,1950-01-01,1973-12-31,False,False,,,,False,,,,False,,,,False,,,,False,,,,False,,,,False,,,,False,,,,False,,,,False,,,,False,,,,False,,,,False,,,,False,,,,False,,,,False,,,,False,,,,False,,,,False,,,,False,,,,False,,,,False,,,,False,,,,False,,,,False,,,
68269001_RIBEAUVILLE,68269001,RIBEAUVILLE,48.2,7.318333,280,True,1962-10-01,1994-06-30,True,True,1963-01-01,1994-06-30,True,False,,,,True,1963-01-01,1994-06-30,True,False,,,,False,,,,True,1963-01-01,1994-06-30,True,True,1963-01-01,1994-06-30,True,False,,,,False,,,,False,,,,False,,,,False,,,,False,,,,False,,,,False,,,,False,,,,False,,,,False,,,,False,,,,False,,,,False,,,,False,,,,False,,,,False,,,,False,,,
68269004_RIBEAU. - VERRE,68269004,RIBEAU. - VERRE,48.223333,7.269167,538,True,1974-01-01,2022-12-31,False,True,2005-07-01,2022-12-31,False,False,,,,True,2005-07-01,2022-12-31,False,False,,,,False,,,,True,2005-07-01,2022-12-31,False,True,2005-07-01,2022-12-31,False,False,,,,False,,,,False,,,,False,,,,False,,,,False,,,,False,,,,False,,,,False,,,,False,,,,False,,,,False,,,,False,,,,False,,,,False,,,,False,,,,False,,,,False,,,
68269005_RIBEAU. - ACACI,68269005,RIBEAU. - ACACI,48.1895,7.336167,220,True,1995-01-01,2021-11-30,True,True,1995-02-01,2020-07-31,False,False,,,,True,1995-02-01,2020-07-31,False,False,,,,False,,,,True,1995-02-01,2020-07-31,False,True,1995-02-01,2020-07-31,False,False,,,,False,,,,False,,,,False,,,,False,,,,False,,,,False,,,,False,,,,False,,,,False,,,,False,,,,False,,,,False,,,,False,,,,False,,,,False,,,,False,,,,False,,,
68275001_RIMBACH,68275001,RIMBACH,47.816667,6.95,580,True,1964-10-01,1968-12-31,False,False,,,,False,,,,False,,,,False,,,,False,,,,False,,,,False,,,,False,,,,False,,,,False,,,,False,,,,False,,,,False,,,,False,,,,False,,,,False,,,,False,,,,False,,,,False,,,,False,,,,False,,,,False,,,,False,,,,False,,,,False,,,
68287001_ROUFFACH - CHS,68287001,ROUFFACH - CHS,47.954,7.291667,208,True,1950-01-01,2022-12-31,False,True,2019-09-04,2022-12-31,True,True,2019-09-04,2022-12-31,True,True,2019-09-03,2022-12-31,True,True,2019-09-03,2022-12-31,False,True,2019-09-04,2022-12-31,True,True,2019-09-04,2022-12-31,True,True,2019-09-04,2022-12-31,True,False,,,,False,,,,True,2019-09-04,2022-12-31,False,False,,,,False,,,,False,,,,False,,,,False,,,,False,,,,False,,,,False,,,,False,,,,False,,,,False,,,,False,,,,False,,,,False,,,,False,,,
68287003_ROUFFACH - SA,68287003,ROUFFACH - SA,47.965333,7.286833,285,True,1986-10-01,2021-07-25,False,True,1986-10-07,2021-07-26,False,True,1986-11-01,2021-07-17,False,True,1986-10-06,2021-07-26,False,True,1986-11-01,2021-07-16,False,True,1986-11-01,2021-07-26,False,True,1986-10-07,2021-07-26,False,True,1986-10-07,2021-07-26,False,False,,,,False,,,,True,2001-10-08,2021-07-26,False,False,,,,True,1993-03-25,2021-07-15,False,False,,,,False,,,,False,,,,False,,,,False,,,,False,,,,True,1993-11-10,2021-07-16,False,False,,,,True,1999-08-18,2021-07-16,False,False,,,,False,,,,False,,,,True,2004-10-11,2004-10-22,False
68294001_PETIT ROMBACH,68294001,PETIT ROMBACH,48.278333,7.179833,545,True,2000-01-01,2021-11-30,False,True,2004-01-01,2021-11-30,False,False,,,,True,2004-01-01,2021-11-30,False,False,,,,False,,,,True,2004-01-01,2021-11-30,False,True,2004-01-01,2021-11-30,False,False,,,,False,,,,False,,,,False,,,,False,,,,False,,,,False,,,,False,,,,False,,,,False,,,,False,,,,False,,,,False,,,,False,,,,False,,,,False,,,,False,,,,False,,,
68294002_STE CROIX AUX MINES,68294002,STE CROIX AUX MINES,48.266667,7.236167,326,True,2000-01-01,2022-12-31,False,True,2000-01-01,2022-12-31,False,False,,,,True,2000-01-01,2022-12-31,False,False,,,,False,,,,True,2000-01-01,2022-12-31,False,True,2000-01-01,2022-12-31,False,False,,,,False,,,,False,,,,False,,,,False,,,,False,,,,False,,,,False,,,,False,,,,False,,,,False,,,,False,,,,False,,,,False,,,,False,,,,False,,,,False,,,,False,,,
68297001_BALE-MULHOUSE,68297001,BALE-MULHOUSE,47.614333,7.51,263,True,1950-01-01,2022-12-31,True,True,1950-01-01,2022-12-31,True,True,1984-01-01,2022-12-31,False,True,1950-01-01,2022-12-31,True,True,1984-01-01,2022-12-31,False,True,1950-01-01,2022-12-31,True,True,1950-01-01,2022-12-31,True,True,1950-01-01,2022-12-31,True,True,1984-01-01,2022-12-31,False,True,1990-01-01,2022-12-31,False,True,1990-01-01,2022-12-31,False,True,1950-01-01,2022-12-31,False,False,,,,True,1973-02-01,2022-12-31,False,True,1973-02-01,2022-12-31,False,True,1984-01-01,2022-12-31,False,True,1950-01-01,2022-12-31,False,True,1962-01-01,2022-12-31,False,True,1984-01-01,2022-12-31,False,False,,,,False,,,,False,,,,True,2008-09-30,2022-12-31,False,False,,,,True,2008-09-30,2022-12-31,False,True,2004-09-01,2022-12-31,False
68298001_STE MARIE-AUX-MINES,68298001,STE MARIE-AUX-MINES,48.241667,7.198333,450,True,1965-07-01,1998-06-08,False,True,1990-10-29,1998-06-03,False,True,1990-10-29,1998-05-31,False,True,1990-10-28,1998-06-03,False,True,1990-10-28,1998-05-31,False,True,1990-10-30,1998-06-11,False,True,1990-10-29,1998-06-03,False,True,1990-10-29,1998-06-03,False,False,,,,False,,,,False,,,,False,,,,False,,,,False,,,,False,,,,False,,,,False,,,,False,,,,False,,,,False,,,,False,,,,False,,,,False,,,,False,,,,False,,,,False,,,
68298003_PETITE LIEPVRE,68298003,PETITE LIEPVRE,48.25,7.25,480,True,1950-01-01,1968-12-31,False,False,,,,False,,,,False,,,,False,,,,False,,,,False,,,,False,,,,False,,,,False,,,,False,,,,False,,,,False,,,,False,,,,False,,,,False,,,,False,,,,False,,,,False,,,,False,,,,False,,,,False,,,,False,,,,False,,,,False,,,,False,,,
68298004_STE MARIE-AUX-MINES - MF,68298004,STE MARIE-AUX-MINES - MF,48.243333,7.22,615,True,1950-01-01,1965-06-30,False,False,,,,False,,,,False,,,,False,,,,False,,,,False,,,,False,,,,False,,,,False,,,,False,,,,False,,,,False,,,,False,,,,False,,,,False,,,,False,,,,False,,,,False,,,,False,,,,False,,,,False,,,,False,,,,False,,,,False,,,,False,,,
68298006_ECHERY,68298006,ECHERY,48.231667,7.163333,430,True,2012-09-01,2017-03-31,False,False,,,,False,,,,False,,,,False,,,,False,,,,False,,,,False,,,,False,,,,False,,,,False,,,,False,,,,False,,,,False,,,,False,,,,False,,,,False,,,,False,,,,False,,,,False,,,,False,,,,False,,,,False,,,,False,,,,False,,,,False,,,
68301001_SCHLIERBACH,68301001,SCHLIERBACH,47.688667,7.429167,249,True,1950-01-01,2017-08-31,False,False,,,,False,,,,False,,,,False,,,,False,,,,False,,,,False,,,,False,,,,False,,,,False,,,,False,,,,False,,,,False,,,,False,,,,False,,,,False,,,,False,,,,False,,,,False,,,,False,,,,False,,,,False,,,,False,,,,False,,,,False,,,
68307001_SEWEN - LAC ALFELD_SAPC,68307001,SEWEN - LAC ALFELD_SAPC,47.8155,6.873833,620,True,1950-01-01,2022-12-31,False,True,1959-01-01,2022-12-31,False,True,2008-09-10,2022-12-31,False,True,1959-01-01,2022-12-31,False,True,2008-09-10,2022-12-31,False,True,2008-09-10,2022-12-31,False,True,1959-01-01,2022-12-31,False,True,1959-01-01,2022-12-31,False,False,,,,False,,,,True,2008-09-10,2022-12-30,False,False,,,,False,,,,False,,,,False,,,,False,,,,False,,,,False,,,,False,,,,False,,,,False,,,,False,,,,False,,,,False,,,,False,,,,False,,,
68307002_SEWEN FOERSTEL,68307002,SEWEN FOERSTEL,47.809667,6.9055,512,True,1958-07-01,2021-07-14,False,False,,,,False,,,,False,,,,False,,,,False,,,,False,,,,False,,,,False,,,,False,,,,False,,,,False,,,,False,,,,False,,,,False,,,,False,,,,False,,,,False,,,,False,,,,False,,,,False,,,,False,,,,False,,,,False,,,,False,,,,False,,,
68307004_SEWEN - FERME,68307004,SEWEN - FERME,47.8,6.9,500,True,1964-01-01,1968-12-31,False,False,,,,False,,,,False,,,,False,,,,False,,,,False,,,,False,,,,False,,,,False,,,,False,,,,False,,,,False,,,,False,,,,False,,,,False,,,,False,,,,False,,,,False,,,,False,,,,False,,,,False,,,,False,,,,False,,,,False,,,,False,,,
68309001_SIERENTZ - MF,68309001,SIERENTZ - MF,47.657,7.462667,270,True,1968-09-01,1976-06-30,False,False,,,,False,,,,False,,,,False,,,,False,,,,False,,,,False,,,,False,,,,False,,,,False,,,,False,,,,False,,,,False,,,,False,,,,False,,,,False,,,,False,,,,False,,,,False,,,,False,,,,False,,,,False,,,,False,,,,False,,,,False,,,
68310001_SIGOLSHEIM,68310001,SIGOLSHEIM,48.116667,7.3,195,True,1958-01-01,1990-03-31,False,True,1958-01-01,1990-06-30,False,False,,,,True,1958-01-01,1990-06-30,False,False,,,,False,,,,True,1958-01-01,1990-06-30,False,True,1958-01-01,1990-06-30,False,False,,,,False,,,,False,,,,False,,,,False,,,,False,,,,False,,,,False,,,,False,,,,False,,,,False,,,,False,,,,False,,,,False,,,,False,,,,False,,,,False,,,,False,,,
68317001_SOULTZEREN - ULP,68317001,SOULTZEREN - ULP,48.078333,7.101667,610,False,,,,True,1979-01-01,1991-11-30,True,False,,,,True,1979-01-01,1991-11-30,False,False,,,,False,,,,True,1979-01-01,1991-11-30,False,True,1979-01-01,1991-11-30,False,False,,,,False,,,,False,,,,False,,,,False,,,,False,,,,False,,,,False,,,,False,,,,False,,,,False,,,,False,,,,False,,,,False,,,,False,,,,False,,,,False,,,,False,,,
68317006_SOULTZEREN SA,68317006,SOULTZEREN SA,48.08,7.11,760,True,1987-05-01,1998-12-31,True,True,1987-05-21,1998-12-31,False,True,1987-05-21,1998-12-31,False,True,1987-05-21,1998-12-31,False,True,1987-05-21,1998-12-31,False,True,1987-05-21,1998-12-30,False,True,1987-05-21,1998-12-31,False,True,1987-05-21,1998-12-31,False,True,1987-05-21,1998-12-31,False,False,,,,False,,,,True,1987-05-21,1998-12-30,False,False,,,,False,,,,False,,,,False,,,,True,1987-05-21,1998-12-31,False,True,1987-05-21,1998-12-31,False,True,1987-05-21,1998-12-31,False,False,,,,False,,,,False,,,,False,,,,False,,,,False,,,,False,,,
68317007_SOULTZEREN,68317007,SOULTZEREN,48.08,7.11,760,False,,,,False,,,,False,,,,False,,,,False,,,,True,1994-05-28,1994-07-07,False,False,,,,False,,,,False,,,,False,,,,False,,,,False,,,,False,,,,False,,,,False,,,,False,,,,False,,,,False,,,,False,,,,False,,,,False,,,,False,,,,False,,,,False,,,,False,,,,False,,,
68329001_ALTENBERG,68329001,ALTENBERG,48.062167,7.042667,1084,True,1966-01-01,1985-05-31,False,True,1966-01-01,1984-12-31,True,False,,,,True,1966-01-01,1984-12-31,True,False,,,,False,,,,True,1966-01-01,1984-12-31,True,True,1966-01-01,1984-12-31,True,False,,,,False,,,,False,,,,False,,,,False,,,,False,,,,False,,,,False,,,,False,,,,False,,,,False,,,,False,,,,False,,,,False,,,,False,,,,False,,,,False,,,,False,,,
68329002_STOSSWIHR,68329002,STOSSWIHR,48.053333,7.025833,1250,True,1987-01-01,1988-12-31,False,True,1987-01-01,1988-12-31,False,False,,,,True,1987-01-01,1988-12-31,False,False,,,,False,,,,True,1987-01-01,1988-12-31,False,True,1987-01-01,1988-12-31,False,False,,,,False,,,,False,,,,False,,,,False,,,,False,,,,False,,,,False,,,,False,,,,False,,,,False,,,,False,,,,False,,,,False,,,,False,,,,False,,,,False,,,,False,,,
68330001_STRUETH,68330001,STRUETH,47.586167,7.123333,347,True,2011-03-01,2019-12-31,True,False,,,,False,,,,False,,,,False,,,,False,,,,False,,,,False,,,,False,,,,False,,,,False,,,,False,,,,False,,,,False,,,,False,,,,False,,,,False,,,,False,,,,False,,,,False,,,,False,,,,False,,,,False,,,,False,,,,False,,,,False,,,
68331001_SUNDHOFFEN,68331001,SUNDHOFFEN,48.041667,7.413333,193,True,1950-01-01,1951-04-16,True,False,,,,False,,,,False,,,,False,,,,False,,,,False,,,,False,,,,False,,,,False,,,,False,,,,False,,,,False,,,,False,,,,False,,,,False,,,,False,,,,False,,,,False,,,,False,,,,False,,,,False,,,,False,,,,False,,,,False,,,,False,,,
68334001_THANN,68334001,THANN,47.816667,7.1,338,True,1961-01-01,1970-11-30,False,False,,,,False,,,,False,,,,False,,,,False,,,,False,,,,False,,,,False,,,,False,,,,False,,,,False,,,,False,,,,False,,,,False,,,,False,,,,False,,,,False,,,,False,,,,False,,,,False,,,,False,,,,False,,,,False,,,,False,,,,False,,,
68334003_THANN,68334003,THANN,47.803667,7.107167,338,True,1999-06-01,2020-12-31,False,True,2006-10-01,2020-12-31,False,False,,,,True,2006-10-01,2020-12-31,False,False,,,,False,,,,True,2006-10-01,2020-12-31,False,True,2006-10-01,2020-12-31,False,False,,,,False,,,,False,,,,False,,,,False,,,,False,,,,False,,,,False,,,,False,,,,False,,,,False,,,,False,,,,False,,,,False,,,,False,,,,False,,,,False,,,,False,,,
68338001_TROIS-EPIS_SAPC,68338001,TROIS-EPIS_SAPC,48.1015,7.231,656,True,1986-01-01,2022-12-31,False,True,1986-01-01,2022-12-31,True,True,1988-06-01,2022-12-31,False,True,1986-01-01,2022-12-31,True,True,1988-06-01,2022-12-31,False,True,1988-06-01,2022-12-31,False,True,1986-01-01,2022-12-31,True,True,1986-01-01,2022-12-31,True,False,,,,False,,,,True,2001-10-08,2022-12-31,False,False,,,,False,,,,False,,,,False,,,,False,,,,False,,,,False,,,,False,,,,False,,,,False,,,,False,,,,False,,,,False,,,,False,,,,False,,,
68349001_VILLAGE-NEUF,68349001,VILLAGE-NEUF,47.583333,7.5,245,True,1959-01-01,1965-12-31,True,False,,,,False,,,,False,,,,False,,,,False,,,,False,,,,False,,,,False,,,,False,,,,False,,,,False,,,,False,,,,False,,,,False,,,,False,,,,False,,,,False,,,,False,,,,False,,,,False,,,,False,,,,False,,,,False,,,,False,,,,False,,,
68359001_WATTWILLER - MF,68359001,WATTWILLER - MF,47.857833,7.149,904,True,1953-01-01,1973-09-30,False,False,,,,False,,,,False,,,,False,,,,False,,,,False,,,,False,,,,False,,,,False,,,,False,,,,False,,,,False,,,,False,,,,False,,,,False,,,,False,,,,False,,,,False,,,,False,,,,False,,,,False,,,,False,,,,False,,,,False,,,,False,,,
68359002_WATTWILLER,68359002,WATTWILLER,47.837167,7.175167,371,True,2005-09-01,2021-12-31,False,False,,,,False,,,,False,,,,False,,,,False,,,,False,,,,False,,,,False,,,,False,,,,False,,,,False,,,,False,,,,False,,,,False,,,,False,,,,False,,,,False,,,,False,,,,False,,,,False,,,,False,,,,False,,,,False,,,,False,,,,False,,,
68370001_WILDENSTEIN,68370001,WILDENSTEIN,47.976167,6.960833,560,True,1950-01-01,2016-02-29,False,False,,,,False,,,,False,,,,False,,,,False,,,,False,,,,False,,,,False,,,,False,,,,False,,,,False,,,,False,,,,False,,,,False,,,,False,,,,False,,,,False,,,,False,,,,False,,,,False,,,,False,,,,False,,,,False,,,,False,,,,False,,,
68374001_WINTZENHEIM - LYCEE,68374001,WINTZENHEIM - LYCEE,48.066667,7.266667,240,True,1950-01-01,1986-06-30,False,False,,,,False,,,,False,,,,False,,,,False,,,,False,,,,False,,,,False,,,,False,,,,False,,,,False,,,,False,,,,False,,,,False,,,,False,,,,False,,,,False,,,,False,,,,False,,,,False,,,,False,,,,False,,,,False,,,,False,,,,False,,,
